{
  "updated_at": "2026-01-11T12:42:20.164Z",
  "dates": [
    {
      "date": "2026-01-12",
      "display_date": "1/12 (月)",
      "rankings": [
        {
          "name": "ムイカスノーリゾート (Muika)",
          "snow": 39.6,
          "prefecture": "新潟県",
          "lat": 37.055,
          "lon": 138.955
        },
        {
          "name": "白山セイモアスキー場 (Hakusan Seymour)",
          "snow": 38.2,
          "prefecture": "石川県",
          "lat": 36.3472,
          "lon": 136.6789
        },
        {
          "name": "上越国際スキー場 (Joetsu Kokusai)",
          "snow": 35.8,
          "prefecture": "新潟県",
          "lat": 37.015,
          "lon": 138.85
        },
        {
          "name": "石打丸山スキー場 (Ishiuchi)",
          "snow": 32.3,
          "prefecture": "新潟県",
          "lat": 36.9892,
          "lon": 138.8028
        },
        {
          "name": "白山一里野温泉スキー場 (Ichirino)",
          "snow": 31.4,
          "prefecture": "石川県",
          "lat": 36.2683,
          "lon": 136.715
        },
        {
          "name": "シャルマン火打スキー場 (Charmant)",
          "snow": 31.2,
          "prefecture": "新潟県",
          "lat": 36.985,
          "lon": 138.055
        },
        {
          "name": "立山山麓スキー場 (Tateyama Sanroku)",
          "snow": 29.4,
          "prefecture": "富山県",
          "lat": 36.5747,
          "lon": 137.417
        },
        {
          "name": "月山スキー場 (Gassan)",
          "snow": 26.9,
          "prefecture": "山形県",
          "lat": 38.51892,
          "lon": 140.00662
        },
        {
          "name": "ハチ北高原スキー場 (Hachi Kita)",
          "snow": 26.9,
          "prefecture": "兵庫県",
          "lat": 35.4045,
          "lon": 134.558
        },
        {
          "name": "会津高原だいくらスキー場 (Daikura)",
          "snow": 26.4,
          "prefecture": "福島県",
          "lat": 37.155,
          "lon": 139.705
        },
        {
          "name": "氷ノ山国際スキー場 (Hyonosen)",
          "snow": 26.2,
          "prefecture": "兵庫県",
          "lat": 35.355,
          "lon": 134.525
        },
        {
          "name": "ホワイトワールド尾瀬岩鞍 (Oze Iwakura)",
          "snow": 25.6,
          "prefecture": "群馬県",
          "lat": 36.84,
          "lon": 139.22
        },
        {
          "name": "かたしな高原スキー場 (Katashina)",
          "snow": 25.6,
          "prefecture": "群馬県",
          "lat": 36.83,
          "lon": 139.23
        },
        {
          "name": "関温泉スキー場 (Seki Onsen)",
          "snow": 25.6,
          "prefecture": "新潟県",
          "lat": 36.895,
          "lon": 138.135
        },
        {
          "name": "GALA湯沢 (GALA Yuzawa)",
          "snow": 24.9,
          "prefecture": "新潟県",
          "lat": 36.9405,
          "lon": 138.7944
        },
        {
          "name": "舞子スノーリゾート (Maiko)",
          "snow": 24.9,
          "prefecture": "新潟県",
          "lat": 36.953,
          "lon": 138.835
        },
        {
          "name": "湯沢高原スキー場 (Yuzawa Kogen)",
          "snow": 24.9,
          "prefecture": "新潟県",
          "lat": 36.945,
          "lon": 138.805
        },
        {
          "name": "グランスノー奥伊吹 (Okuibuki)",
          "snow": 24.4,
          "prefecture": "滋賀県",
          "lat": 35.522,
          "lon": 136.3872
        },
        {
          "name": "白馬コルチナスキー場 (Cortina)",
          "snow": 23.9,
          "prefecture": "長野県",
          "lat": 36.785,
          "lon": 137.885
        },
        {
          "name": "白馬乗鞍温泉スキー場 (Norikura)",
          "snow": 23.9,
          "prefecture": "長野県",
          "lat": 36.775,
          "lon": 137.865
        },
        {
          "name": "牛岳温泉スキー場 (Ushidake Onsen)",
          "snow": 23.6,
          "prefecture": "富山県",
          "lat": 36.5737,
          "lon": 137.057
        },
        {
          "name": "福井和泉スキー場 (Fukui Izumi)",
          "snow": 22.3,
          "prefecture": "福井県",
          "lat": 35.9397,
          "lon": 136.69208
        },
        {
          "name": "栂池高原スキー場 (Tsugaike)",
          "snow": 22.1,
          "prefecture": "長野県",
          "lat": 36.7536,
          "lon": 137.8767
        },
        {
          "name": "ロッテアライリゾート (Lotte Arai)",
          "snow": 21.8,
          "prefecture": "新潟県",
          "lat": 36.99064,
          "lon": 138.18138
        },
        {
          "name": "白馬八方尾根スキー場 (Hakuba Happo)",
          "snow": 21.5,
          "prefecture": "長野県",
          "lat": 36.7018,
          "lon": 137.8327
        },
        {
          "name": "Hakuba47",
          "snow": 21.5,
          "prefecture": "長野県",
          "lat": 36.685,
          "lon": 137.835
        },
        {
          "name": "スカイバレースキー場 (Sky Valley)",
          "snow": 20.8,
          "prefecture": "兵庫県",
          "lat": 35.4489,
          "lon": 134.5458
        },
        {
          "name": "おじろスキー場 (Ojiro)",
          "snow": 20.8,
          "prefecture": "兵庫県",
          "lat": 35.425,
          "lon": 134.585
        },
        {
          "name": "赤倉観光リゾート (Akakura)",
          "snow": 19.7,
          "prefecture": "新潟県",
          "lat": 36.885,
          "lon": 138.165
        },
        {
          "name": "群馬みなかみほうだいぎスキー場 (Houdaigi)",
          "snow": 19.5,
          "prefecture": "群馬県",
          "lat": 36.852,
          "lon": 139.055
        },
        {
          "name": "たいらスキー場 (Taira)",
          "snow": 19.4,
          "prefecture": "富山県",
          "lat": 36.45,
          "lon": 136.95
        },
        {
          "name": "丸沼高原スキー場 (Marunuma)",
          "snow": 18.6,
          "prefecture": "群馬県",
          "lat": 36.8183,
          "lon": 139.3364
        },
        {
          "name": "野沢温泉スキー場 (Nozawa Onsen)",
          "snow": 18.3,
          "prefecture": "長野県",
          "lat": 36.9197,
          "lon": 138.4485
        },
        {
          "name": "戸隠スキー場 (Togakushi)",
          "snow": 18.3,
          "prefecture": "長野県",
          "lat": 36.765,
          "lon": 138.085
        },
        {
          "name": "IOX-AROSA (イオックスアローザ)",
          "snow": 17.6,
          "prefecture": "富山県",
          "lat": 36.5149,
          "lon": 136.8209
        },
        {
          "name": "たざわ湖スキー場 (Tazawako)",
          "snow": 17.4,
          "prefecture": "秋田県",
          "lat": 39.757,
          "lon": 140.758
        },
        {
          "name": "八甲田スキー場 (Hakkoda)",
          "snow": 17,
          "prefecture": "青森県",
          "lat": 40.6868,
          "lon": 140.8654
        },
        {
          "name": "奥志賀高原スキー場 (Okushiga)",
          "snow": 16.4,
          "prefecture": "長野県",
          "lat": 36.78,
          "lon": 138.54
        },
        {
          "name": "神立スノーリゾート (Kandatsu)",
          "snow": 16.2,
          "prefecture": "新潟県",
          "lat": 36.92,
          "lon": 138.835
        },
        {
          "name": "日光湯元温泉スキー場 (Nikko Yumoto)",
          "snow": 16,
          "prefecture": "栃木県",
          "lat": 36.805,
          "lon": 139.42
        },
        {
          "name": "川場スキー場 (Kawaba)",
          "snow": 15.8,
          "prefecture": "群馬県",
          "lat": 36.8122,
          "lon": 139.1083
        },
        {
          "name": "白馬岩岳スノーフィールド (Iwatake)",
          "snow": 15.8,
          "prefecture": "長野県",
          "lat": 36.715,
          "lon": 137.865
        },
        {
          "name": "スキージャム勝山 (Ski Jam Katsuyama)",
          "snow": 15.5,
          "prefecture": "福井県",
          "lat": 36.0733,
          "lon": 136.5556
        },
        {
          "name": "白馬五竜スキー場 (Hakuba Goryu)",
          "snow": 15,
          "prefecture": "長野県",
          "lat": 36.6572,
          "lon": 137.8306
        },
        {
          "name": "ウイングヒルズ白鳥 (Wing Hills)",
          "snow": 14.8,
          "prefecture": "岐阜県",
          "lat": 35.9672,
          "lon": 136.7906
        },
        {
          "name": "スノーウェーブパーク白鳥高原 (Shiratori Kogen)",
          "snow": 14.8,
          "prefecture": "岐阜県",
          "lat": 35.9397,
          "lon": 136.7864
        },
        {
          "name": "太平山スキー場オーパス (Opas)",
          "snow": 14.7,
          "prefecture": "秋田県",
          "lat": 39.78,
          "lon": 140.18
        },
        {
          "name": "妙高杉ノ原スキー場 (Myoko Suginohara)",
          "snow": 14.6,
          "prefecture": "新潟県",
          "lat": 36.8336,
          "lon": 138.1633
        },
        {
          "name": "かぐらスキー場 (Kagura)",
          "snow": 14.5,
          "prefecture": "新潟県",
          "lat": 36.8375,
          "lon": 138.7778
        },
        {
          "name": "志賀高原 焼額山 (Shiga Kogen)",
          "snow": 14.5,
          "prefecture": "長野県",
          "lat": 36.7621,
          "lon": 138.5367
        },
        {
          "name": "ほおのき平スキー場 (Honoki Daira)",
          "snow": 14.1,
          "prefecture": "岐阜県",
          "lat": 36.1436,
          "lon": 137.4528
        },
        {
          "name": "竜王スキーパーク (Ryuoo)",
          "snow": 14,
          "prefecture": "長野県",
          "lat": 36.805,
          "lon": 138.455
        },
        {
          "name": "天元台高原 (Tengendai)",
          "snow": 13.9,
          "prefecture": "山形県",
          "lat": 37.7983,
          "lon": 140.1197
        },
        {
          "name": "阿仁スキー場 (Ani)",
          "snow": 13.2,
          "prefecture": "秋田県",
          "lat": 39.953,
          "lon": 140.354
        },
        {
          "name": "マウントジーンズ那須 (Mt.JEANS)",
          "snow": 13.2,
          "prefecture": "栃木県",
          "lat": 37.1264,
          "lon": 139.988
        },
        {
          "name": "斑尾高原スキー場 (Madarao)",
          "snow": 12.6,
          "prefecture": "長野県",
          "lat": 36.845,
          "lon": 138.305
        },
        {
          "name": "タングラムスキーサーカス (Tangram)",
          "snow": 12.6,
          "prefecture": "長野県",
          "lat": 36.855,
          "lon": 138.285
        },
        {
          "name": "金沢市営医王山スキー場 (Iozen)",
          "snow": 12.4,
          "prefecture": "石川県",
          "lat": 36.48,
          "lon": 136.7
        },
        {
          "name": "高鷲スノーパーク (Takasu Snow Park)",
          "snow": 11.6,
          "prefecture": "岐阜県",
          "lat": 35.998,
          "lon": 136.8773
        },
        {
          "name": "ダイナランド (Dynaland)",
          "snow": 11.6,
          "prefecture": "岐阜県",
          "lat": 35.9967,
          "lon": 136.8606
        },
        {
          "name": "鷲ヶ岳スキー場 (Washigatake)",
          "snow": 11.6,
          "prefecture": "岐阜県",
          "lat": 35.9794,
          "lon": 136.8483
        },
        {
          "name": "ひるがの高原スキー場 (Hirugano)",
          "snow": 11.6,
          "prefecture": "岐阜県",
          "lat": 35.985,
          "lon": 136.905
        },
        {
          "name": "モヤヒルズ (Moya Hills)",
          "snow": 11.1,
          "prefecture": "青森県",
          "lat": 40.7275,
          "lon": 140.8033
        },
        {
          "name": "たんばらスキーパーク (Tambara)",
          "snow": 11.1,
          "prefecture": "群馬県",
          "lat": 36.7867,
          "lon": 139.0667
        },
        {
          "name": "安比高原スキー場 (Appi Kogen)",
          "snow": 10.2,
          "prefecture": "岩手県",
          "lat": 40.0019,
          "lon": 140.9749
        },
        {
          "name": "万座温泉スキー場 (Manza Onsen)",
          "snow": 10.1,
          "prefecture": "群馬県",
          "lat": 36.6341,
          "lon": 138.5133
        },
        {
          "name": "ハンターマウンテン塩原 (Hunter Mt)",
          "snow": 9.9,
          "prefecture": "栃木県",
          "lat": 36.9377,
          "lon": 139.7744
        },
        {
          "name": "エーデルワイススキーリゾート (Edelweiss)",
          "snow": 9.9,
          "prefecture": "栃木県",
          "lat": 36.932,
          "lon": 139.755
        },
        {
          "name": "ジュネス栗駒 (Jeunesse)",
          "snow": 9.8,
          "prefecture": "秋田県",
          "lat": 39.1822,
          "lon": 140.6713
        },
        {
          "name": "苗場スキー場 (Naeba)",
          "snow": 8.7,
          "prefecture": "新潟県",
          "lat": 36.7933,
          "lon": 138.7844
        },
        {
          "name": "ノルン水上スキー場 (Norn Minakami)",
          "snow": 8.5,
          "prefecture": "群馬県",
          "lat": 36.8042,
          "lon": 138.9722
        },
        {
          "name": "奥利根スノーパーク (Okutone)",
          "snow": 8.5,
          "prefecture": "群馬県",
          "lat": 36.805,
          "lon": 139.005
        },
        {
          "name": "ホワイトピアたかす (White Pia)",
          "snow": 8.4,
          "prefecture": "岐阜県",
          "lat": 35.956,
          "lon": 136.935
        },
        {
          "name": "夏油高原スキー場 (Geto Kogen)",
          "snow": 8.3,
          "prefecture": "岩手県",
          "lat": 39.2311,
          "lon": 140.9419
        },
        {
          "name": "グランデコスノーリゾート (Grandeco)",
          "snow": 8.3,
          "prefecture": "福島県",
          "lat": 37.6853,
          "lon": 140.0933
        },
        {
          "name": "雫石スキー場 (Shizukuishi)",
          "snow": 7.3,
          "prefecture": "岩手県",
          "lat": 39.718,
          "lon": 140.9575
        },
        {
          "name": "菅平高原スノーリゾート (Sugadaira)",
          "snow": 7.3,
          "prefecture": "長野県",
          "lat": 36.5414,
          "lon": 138.3581
        },
        {
          "name": "星野リゾート ネコマ マウンテン (Nekoma)",
          "snow": 7.2,
          "prefecture": "福島県",
          "lat": 37.6042,
          "lon": 140.0381
        },
        {
          "name": "猪苗代スキー場 (Inawashiro)",
          "snow": 7.2,
          "prefecture": "福島県",
          "lat": 37.575,
          "lon": 140.063
        },
        {
          "name": "箱館山スキー場 (Hakodateyama)",
          "snow": 6.5,
          "prefecture": "滋賀県",
          "lat": 35.455,
          "lon": 136.035
        },
        {
          "name": "オニコウベスキー場 (Onikoube)",
          "snow": 6.4,
          "prefecture": "宮城県",
          "lat": 38.802,
          "lon": 140.645
        },
        {
          "name": "ジャングルジャングル (Jungle Jungle)",
          "snow": 6.3,
          "prefecture": "山形県",
          "lat": 38.455,
          "lon": 140.455
        },
        {
          "name": "カムイスキーリンクス (Kamui)",
          "snow": 5.8,
          "prefecture": "北海道",
          "lat": 43.6444,
          "lon": 142.2283
        },
        {
          "name": "岩手高原スノーパーク (Iwate Kogen)",
          "snow": 5.8,
          "prefecture": "岩手県",
          "lat": 39.715,
          "lon": 140.98
        },
        {
          "name": "めいほうスキー場 (Meiho)",
          "snow": 5.7,
          "prefecture": "岐阜県",
          "lat": 35.9418,
          "lon": 137.043
        },
        {
          "name": "八幡平リゾート (Hachimantai)",
          "snow": 5.5,
          "prefecture": "岩手県",
          "lat": 39.9075,
          "lon": 141.0264
        },
        {
          "name": "青森スプリング (Aomori Spring)",
          "snow": 5.2,
          "prefecture": "青森県",
          "lat": 40.7303,
          "lon": 140.2479
        },
        {
          "name": "マウンテンフィールド宮城蔵王すみかわ (Sumikawa)",
          "snow": 4.8,
          "prefecture": "宮城県",
          "lat": 38.125,
          "lon": 140.482
        },
        {
          "name": "ニセコユナイテッド (Niseko United)",
          "snow": 4.5,
          "prefecture": "北海道",
          "lat": 42.8631,
          "lon": 140.7042
        },
        {
          "name": "ルスツリゾート (Rusutsu)",
          "snow": 4.3,
          "prefecture": "北海道",
          "lat": 42.7533,
          "lon": 140.9029
        },
        {
          "name": "箕輪スキー場 (Minowa)",
          "snow": 4.3,
          "prefecture": "福島県",
          "lat": 37.64,
          "lon": 140.23
        },
        {
          "name": "沼尻スキー場 (Numajiri)",
          "snow": 4.3,
          "prefecture": "福島県",
          "lat": 37.625,
          "lon": 140.245
        },
        {
          "name": "サッポロテイネ (Sapporo Teine)",
          "snow": 4.1,
          "prefecture": "北海道",
          "lat": 43.0973,
          "lon": 141.2044
        },
        {
          "name": "大鰐温泉スキー場 (Owani Onsen)",
          "snow": 3.9,
          "prefecture": "青森県",
          "lat": 40.505,
          "lon": 140.556
        },
        {
          "name": "スプリングバレー仙台泉 (Spring Valley)",
          "snow": 3.6,
          "prefecture": "宮城県",
          "lat": 38.423,
          "lon": 140.7226
        },
        {
          "name": "蔵王温泉スキー場 (Zao Onsen)",
          "snow": 3.6,
          "prefecture": "山形県",
          "lat": 38.1636,
          "lon": 140.4042
        },
        {
          "name": "ユートピアサイオト (Saioto)",
          "snow": 3.6,
          "prefecture": "広島県",
          "lat": 34.725,
          "lon": 132.355
        },
        {
          "name": "富良野スキー場 (Furano)",
          "snow": 3.4,
          "prefecture": "北海道",
          "lat": 43.3243,
          "lon": 142.3456
        },
        {
          "name": "大雪山旭岳ロープウェイ (Asahidake)",
          "snow": 3.4,
          "prefecture": "北海道",
          "lat": 43.6542,
          "lon": 142.7964
        },
        {
          "name": "みやぎ蔵王えぼし (Eboshi)",
          "snow": 2.7,
          "prefecture": "宮城県",
          "lat": 38.1257,
          "lon": 140.5422
        },
        {
          "name": "めがひらスキー場 (Megahira)",
          "snow": 2.7,
          "prefecture": "広島県",
          "lat": 34.4533,
          "lon": 132.1158
        },
        {
          "name": "今庄365スキー場 (Imajo)",
          "snow": 2.3,
          "prefecture": "福井県",
          "lat": 35.755,
          "lon": 136.155
        },
        {
          "name": "キロロスノーワールド (Kiroro)",
          "snow": 2,
          "prefecture": "北海道",
          "lat": 43.0722,
          "lon": 140.9781
        },
        {
          "name": "恐羅漢スノーパーク (Osorakan)",
          "snow": 1.8,
          "prefecture": "広島県",
          "lat": 34.5957,
          "lon": 132.1466
        },
        {
          "name": "ニセコモイワスキー場 (Niseko Moiwa)",
          "snow": 1.7,
          "prefecture": "北海道",
          "lat": 42.855,
          "lon": 140.638
        },
        {
          "name": "トマムスキー場 (Tomamu)",
          "snow": 1.6,
          "prefecture": "北海道",
          "lat": 43.0628,
          "lon": 142.6322
        },
        {
          "name": "サホロリゾート (Sahoro)",
          "snow": 1.6,
          "prefecture": "北海道",
          "lat": 43.1749,
          "lon": 142.8076
        },
        {
          "name": "車山高原SKYPARK (Kurumayama)",
          "snow": 1.5,
          "prefecture": "長野県",
          "lat": 36.105,
          "lon": 138.205
        },
        {
          "name": "サンメドウズ清里 (Sun Meadows)",
          "snow": 1.4,
          "prefecture": "山梨県",
          "lat": 35.9381,
          "lon": 138.4069
        },
        {
          "name": "芸北高原大佐スキー場 (Osa)",
          "snow": 1.3,
          "prefecture": "広島県",
          "lat": 34.7479,
          "lon": 132.2203
        },
        {
          "name": "やわたハイランド191 (Yawata)",
          "snow": 1.3,
          "prefecture": "広島県",
          "lat": 34.6946,
          "lon": 132.16
        },
        {
          "name": "ちくさ高原スキー場 (Chikusa)",
          "snow": 1.1,
          "prefecture": "兵庫県",
          "lat": 35.185,
          "lon": 134.455
        },
        {
          "name": "札幌国際スキー場 (Sapporo Kokusai)",
          "snow": 0.8,
          "prefecture": "北海道",
          "lat": 43.0724,
          "lon": 141.0827
        },
        {
          "name": "峰山高原リゾート (Mineyama)",
          "snow": 0.8,
          "prefecture": "兵庫県",
          "lat": 35.155,
          "lon": 134.705
        },
        {
          "name": "びわ湖バレイ (Biwako Valley)",
          "snow": 0.4,
          "prefecture": "滋賀県",
          "lat": 35.203,
          "lon": 135.907
        },
        {
          "name": "軽井沢プリンスホテルスキー場 (Karuizawa)",
          "snow": 0,
          "prefecture": "長野県",
          "lat": 36.3353,
          "lon": 138.6339
        },
        {
          "name": "ふじてんスノーリゾート (Fujiten)",
          "snow": 0,
          "prefecture": "山梨県",
          "lat": 35.4328,
          "lon": 138.6947
        },
        {
          "name": "カムイみさかスキー場 (Misaka)",
          "snow": 0,
          "prefecture": "山梨県",
          "lat": 35.585,
          "lon": 138.655
        }
      ]
    },
    {
      "date": "2026-01-13",
      "display_date": "1/13 (火)",
      "rankings": [
        {
          "name": "太平山スキー場オーパス (Opas)",
          "snow": 8.4,
          "prefecture": "秋田県",
          "lat": 39.78,
          "lon": 140.18
        },
        {
          "name": "月山スキー場 (Gassan)",
          "snow": 8.3,
          "prefecture": "山形県",
          "lat": 38.51892,
          "lon": 140.00662
        },
        {
          "name": "たざわ湖スキー場 (Tazawako)",
          "snow": 8,
          "prefecture": "秋田県",
          "lat": 39.757,
          "lon": 140.758
        },
        {
          "name": "阿仁スキー場 (Ani)",
          "snow": 5.9,
          "prefecture": "秋田県",
          "lat": 39.953,
          "lon": 140.354
        },
        {
          "name": "ジュネス栗駒 (Jeunesse)",
          "snow": 4.8,
          "prefecture": "秋田県",
          "lat": 39.1822,
          "lon": 140.6713
        },
        {
          "name": "雫石スキー場 (Shizukuishi)",
          "snow": 4.3,
          "prefecture": "岩手県",
          "lat": 39.718,
          "lon": 140.9575
        },
        {
          "name": "岩手高原スノーパーク (Iwate Kogen)",
          "snow": 3.2,
          "prefecture": "岩手県",
          "lat": 39.715,
          "lon": 140.98
        },
        {
          "name": "オニコウベスキー場 (Onikoube)",
          "snow": 2.9,
          "prefecture": "宮城県",
          "lat": 38.802,
          "lon": 140.645
        },
        {
          "name": "夏油高原スキー場 (Geto Kogen)",
          "snow": 2.7,
          "prefecture": "岩手県",
          "lat": 39.2311,
          "lon": 140.9419
        },
        {
          "name": "八幡平リゾート (Hachimantai)",
          "snow": 2.5,
          "prefecture": "岩手県",
          "lat": 39.9075,
          "lon": 141.0264
        },
        {
          "name": "八甲田スキー場 (Hakkoda)",
          "snow": 2.3,
          "prefecture": "青森県",
          "lat": 40.6868,
          "lon": 140.8654
        },
        {
          "name": "大鰐温泉スキー場 (Owani Onsen)",
          "snow": 1.8,
          "prefecture": "青森県",
          "lat": 40.505,
          "lon": 140.556
        },
        {
          "name": "青森スプリング (Aomori Spring)",
          "snow": 1.5,
          "prefecture": "青森県",
          "lat": 40.7303,
          "lon": 140.2479
        },
        {
          "name": "安比高原スキー場 (Appi Kogen)",
          "snow": 1.4,
          "prefecture": "岩手県",
          "lat": 40.0019,
          "lon": 140.9749
        },
        {
          "name": "サッポロテイネ (Sapporo Teine)",
          "snow": 1.3,
          "prefecture": "北海道",
          "lat": 43.0973,
          "lon": 141.2044
        },
        {
          "name": "グランデコスノーリゾート (Grandeco)",
          "snow": 1.2,
          "prefecture": "福島県",
          "lat": 37.6853,
          "lon": 140.0933
        },
        {
          "name": "蔵王温泉スキー場 (Zao Onsen)",
          "snow": 1,
          "prefecture": "山形県",
          "lat": 38.1636,
          "lon": 140.4042
        },
        {
          "name": "星野リゾート ネコマ マウンテン (Nekoma)",
          "snow": 1,
          "prefecture": "福島県",
          "lat": 37.6042,
          "lon": 140.0381
        },
        {
          "name": "猪苗代スキー場 (Inawashiro)",
          "snow": 1,
          "prefecture": "福島県",
          "lat": 37.575,
          "lon": 140.063
        },
        {
          "name": "モヤヒルズ (Moya Hills)",
          "snow": 0.9,
          "prefecture": "青森県",
          "lat": 40.7275,
          "lon": 140.8033
        },
        {
          "name": "富良野スキー場 (Furano)",
          "snow": 0.8,
          "prefecture": "北海道",
          "lat": 43.3243,
          "lon": 142.3456
        },
        {
          "name": "マウンテンフィールド宮城蔵王すみかわ (Sumikawa)",
          "snow": 0.8,
          "prefecture": "宮城県",
          "lat": 38.125,
          "lon": 140.482
        },
        {
          "name": "箕輪スキー場 (Minowa)",
          "snow": 0.8,
          "prefecture": "福島県",
          "lat": 37.64,
          "lon": 140.23
        },
        {
          "name": "沼尻スキー場 (Numajiri)",
          "snow": 0.8,
          "prefecture": "福島県",
          "lat": 37.625,
          "lon": 140.245
        },
        {
          "name": "白山一里野温泉スキー場 (Ichirino)",
          "snow": 0.8,
          "prefecture": "石川県",
          "lat": 36.2683,
          "lon": 136.715
        },
        {
          "name": "白馬八方尾根スキー場 (Hakuba Happo)",
          "snow": 0.6,
          "prefecture": "長野県",
          "lat": 36.7018,
          "lon": 137.8327
        },
        {
          "name": "Hakuba47",
          "snow": 0.6,
          "prefecture": "長野県",
          "lat": 36.685,
          "lon": 137.835
        },
        {
          "name": "白馬五竜スキー場 (Hakuba Goryu)",
          "snow": 0.5,
          "prefecture": "長野県",
          "lat": 36.6572,
          "lon": 137.8306
        },
        {
          "name": "キロロスノーワールド (Kiroro)",
          "snow": 0.4,
          "prefecture": "北海道",
          "lat": 43.0722,
          "lon": 140.9781
        },
        {
          "name": "カムイスキーリンクス (Kamui)",
          "snow": 0.4,
          "prefecture": "北海道",
          "lat": 43.6444,
          "lon": 142.2283
        },
        {
          "name": "天元台高原 (Tengendai)",
          "snow": 0.4,
          "prefecture": "山形県",
          "lat": 37.7983,
          "lon": 140.1197
        },
        {
          "name": "ジャングルジャングル (Jungle Jungle)",
          "snow": 0.4,
          "prefecture": "山形県",
          "lat": 38.455,
          "lon": 140.455
        },
        {
          "name": "栂池高原スキー場 (Tsugaike)",
          "snow": 0.4,
          "prefecture": "長野県",
          "lat": 36.7536,
          "lon": 137.8767
        },
        {
          "name": "白馬コルチナスキー場 (Cortina)",
          "snow": 0.4,
          "prefecture": "長野県",
          "lat": 36.785,
          "lon": 137.885
        },
        {
          "name": "白馬乗鞍温泉スキー場 (Norikura)",
          "snow": 0.4,
          "prefecture": "長野県",
          "lat": 36.775,
          "lon": 137.865
        },
        {
          "name": "福井和泉スキー場 (Fukui Izumi)",
          "snow": 0.4,
          "prefecture": "福井県",
          "lat": 35.9397,
          "lon": 136.69208
        },
        {
          "name": "ニセコユナイテッド (Niseko United)",
          "snow": 0.3,
          "prefecture": "北海道",
          "lat": 42.8631,
          "lon": 140.7042
        },
        {
          "name": "大雪山旭岳ロープウェイ (Asahidake)",
          "snow": 0.3,
          "prefecture": "北海道",
          "lat": 43.6542,
          "lon": 142.7964
        },
        {
          "name": "白馬岩岳スノーフィールド (Iwatake)",
          "snow": 0.3,
          "prefecture": "長野県",
          "lat": 36.715,
          "lon": 137.865
        },
        {
          "name": "スキージャム勝山 (Ski Jam Katsuyama)",
          "snow": 0.3,
          "prefecture": "福井県",
          "lat": 36.0733,
          "lon": 136.5556
        },
        {
          "name": "ルスツリゾート (Rusutsu)",
          "snow": 0.2,
          "prefecture": "北海道",
          "lat": 42.7533,
          "lon": 140.9029
        },
        {
          "name": "トマムスキー場 (Tomamu)",
          "snow": 0.2,
          "prefecture": "北海道",
          "lat": 43.0628,
          "lon": 142.6322
        },
        {
          "name": "サホロリゾート (Sahoro)",
          "snow": 0.2,
          "prefecture": "北海道",
          "lat": 43.1749,
          "lon": 142.8076
        },
        {
          "name": "ニセコモイワスキー場 (Niseko Moiwa)",
          "snow": 0.2,
          "prefecture": "北海道",
          "lat": 42.855,
          "lon": 140.638
        },
        {
          "name": "高鷲スノーパーク (Takasu Snow Park)",
          "snow": 0.2,
          "prefecture": "岐阜県",
          "lat": 35.998,
          "lon": 136.8773
        },
        {
          "name": "ダイナランド (Dynaland)",
          "snow": 0.2,
          "prefecture": "岐阜県",
          "lat": 35.9967,
          "lon": 136.8606
        },
        {
          "name": "鷲ヶ岳スキー場 (Washigatake)",
          "snow": 0.2,
          "prefecture": "岐阜県",
          "lat": 35.9794,
          "lon": 136.8483
        },
        {
          "name": "ひるがの高原スキー場 (Hirugano)",
          "snow": 0.2,
          "prefecture": "岐阜県",
          "lat": 35.985,
          "lon": 136.905
        },
        {
          "name": "白山セイモアスキー場 (Hakusan Seymour)",
          "snow": 0.2,
          "prefecture": "石川県",
          "lat": 36.3472,
          "lon": 136.6789
        },
        {
          "name": "札幌国際スキー場 (Sapporo Kokusai)",
          "snow": 0.1,
          "prefecture": "北海道",
          "lat": 43.0724,
          "lon": 141.0827
        },
        {
          "name": "みやぎ蔵王えぼし (Eboshi)",
          "snow": 0.1,
          "prefecture": "宮城県",
          "lat": 38.1257,
          "lon": 140.5422
        },
        {
          "name": "関温泉スキー場 (Seki Onsen)",
          "snow": 0.1,
          "prefecture": "新潟県",
          "lat": 36.895,
          "lon": 138.135
        },
        {
          "name": "戸隠スキー場 (Togakushi)",
          "snow": 0.1,
          "prefecture": "長野県",
          "lat": 36.765,
          "lon": 138.085
        },
        {
          "name": "ホワイトピアたかす (White Pia)",
          "snow": 0.1,
          "prefecture": "岐阜県",
          "lat": 35.956,
          "lon": 136.935
        },
        {
          "name": "ウイングヒルズ白鳥 (Wing Hills)",
          "snow": 0.1,
          "prefecture": "岐阜県",
          "lat": 35.9672,
          "lon": 136.7906
        },
        {
          "name": "スノーウェーブパーク白鳥高原 (Shiratori Kogen)",
          "snow": 0.1,
          "prefecture": "岐阜県",
          "lat": 35.9397,
          "lon": 136.7864
        },
        {
          "name": "めいほうスキー場 (Meiho)",
          "snow": 0.1,
          "prefecture": "岐阜県",
          "lat": 35.9418,
          "lon": 137.043
        },
        {
          "name": "ほおのき平スキー場 (Honoki Daira)",
          "snow": 0.1,
          "prefecture": "岐阜県",
          "lat": 36.1436,
          "lon": 137.4528
        },
        {
          "name": "立山山麓スキー場 (Tateyama Sanroku)",
          "snow": 0.1,
          "prefecture": "富山県",
          "lat": 36.5747,
          "lon": 137.417
        },
        {
          "name": "スプリングバレー仙台泉 (Spring Valley)",
          "snow": 0,
          "prefecture": "宮城県",
          "lat": 38.423,
          "lon": 140.7226
        },
        {
          "name": "会津高原だいくらスキー場 (Daikura)",
          "snow": 0,
          "prefecture": "福島県",
          "lat": 37.155,
          "lon": 139.705
        },
        {
          "name": "ハンターマウンテン塩原 (Hunter Mt)",
          "snow": 0,
          "prefecture": "栃木県",
          "lat": 36.9377,
          "lon": 139.7744
        },
        {
          "name": "マウントジーンズ那須 (Mt.JEANS)",
          "snow": 0,
          "prefecture": "栃木県",
          "lat": 37.1264,
          "lon": 139.988
        },
        {
          "name": "エーデルワイススキーリゾート (Edelweiss)",
          "snow": 0,
          "prefecture": "栃木県",
          "lat": 36.932,
          "lon": 139.755
        },
        {
          "name": "日光湯元温泉スキー場 (Nikko Yumoto)",
          "snow": 0,
          "prefecture": "栃木県",
          "lat": 36.805,
          "lon": 139.42
        },
        {
          "name": "丸沼高原スキー場 (Marunuma)",
          "snow": 0,
          "prefecture": "群馬県",
          "lat": 36.8183,
          "lon": 139.3364
        },
        {
          "name": "川場スキー場 (Kawaba)",
          "snow": 0,
          "prefecture": "群馬県",
          "lat": 36.8122,
          "lon": 139.1083
        },
        {
          "name": "たんばらスキーパーク (Tambara)",
          "snow": 0,
          "prefecture": "群馬県",
          "lat": 36.7867,
          "lon": 139.0667
        },
        {
          "name": "万座温泉スキー場 (Manza Onsen)",
          "snow": 0,
          "prefecture": "群馬県",
          "lat": 36.6341,
          "lon": 138.5133
        },
        {
          "name": "ノルン水上スキー場 (Norn Minakami)",
          "snow": 0,
          "prefecture": "群馬県",
          "lat": 36.8042,
          "lon": 138.9722
        },
        {
          "name": "ホワイトワールド尾瀬岩鞍 (Oze Iwakura)",
          "snow": 0,
          "prefecture": "群馬県",
          "lat": 36.84,
          "lon": 139.22
        },
        {
          "name": "かたしな高原スキー場 (Katashina)",
          "snow": 0,
          "prefecture": "群馬県",
          "lat": 36.83,
          "lon": 139.23
        },
        {
          "name": "群馬みなかみほうだいぎスキー場 (Houdaigi)",
          "snow": 0,
          "prefecture": "群馬県",
          "lat": 36.852,
          "lon": 139.055
        },
        {
          "name": "奥利根スノーパーク (Okutone)",
          "snow": 0,
          "prefecture": "群馬県",
          "lat": 36.805,
          "lon": 139.005
        },
        {
          "name": "苗場スキー場 (Naeba)",
          "snow": 0,
          "prefecture": "新潟県",
          "lat": 36.7933,
          "lon": 138.7844
        },
        {
          "name": "かぐらスキー場 (Kagura)",
          "snow": 0,
          "prefecture": "新潟県",
          "lat": 36.8375,
          "lon": 138.7778
        },
        {
          "name": "GALA湯沢 (GALA Yuzawa)",
          "snow": 0,
          "prefecture": "新潟県",
          "lat": 36.9405,
          "lon": 138.7944
        },
        {
          "name": "石打丸山スキー場 (Ishiuchi)",
          "snow": 0,
          "prefecture": "新潟県",
          "lat": 36.9892,
          "lon": 138.8028
        },
        {
          "name": "ロッテアライリゾート (Lotte Arai)",
          "snow": 0,
          "prefecture": "新潟県",
          "lat": 36.99064,
          "lon": 138.18138
        },
        {
          "name": "妙高杉ノ原スキー場 (Myoko Suginohara)",
          "snow": 0,
          "prefecture": "新潟県",
          "lat": 36.8336,
          "lon": 138.1633
        },
        {
          "name": "舞子スノーリゾート (Maiko)",
          "snow": 0,
          "prefecture": "新潟県",
          "lat": 36.953,
          "lon": 138.835
        },
        {
          "name": "湯沢高原スキー場 (Yuzawa Kogen)",
          "snow": 0,
          "prefecture": "新潟県",
          "lat": 36.945,
          "lon": 138.805
        },
        {
          "name": "神立スノーリゾート (Kandatsu)",
          "snow": 0,
          "prefecture": "新潟県",
          "lat": 36.92,
          "lon": 138.835
        },
        {
          "name": "ムイカスノーリゾート (Muika)",
          "snow": 0,
          "prefecture": "新潟県",
          "lat": 37.055,
          "lon": 138.955
        },
        {
          "name": "シャルマン火打スキー場 (Charmant)",
          "snow": 0,
          "prefecture": "新潟県",
          "lat": 36.985,
          "lon": 138.055
        },
        {
          "name": "赤倉観光リゾート (Akakura)",
          "snow": 0,
          "prefecture": "新潟県",
          "lat": 36.885,
          "lon": 138.165
        },
        {
          "name": "上越国際スキー場 (Joetsu Kokusai)",
          "snow": 0,
          "prefecture": "新潟県",
          "lat": 37.015,
          "lon": 138.85
        },
        {
          "name": "野沢温泉スキー場 (Nozawa Onsen)",
          "snow": 0,
          "prefecture": "長野県",
          "lat": 36.9197,
          "lon": 138.4485
        },
        {
          "name": "志賀高原 焼額山 (Shiga Kogen)",
          "snow": 0,
          "prefecture": "長野県",
          "lat": 36.7621,
          "lon": 138.5367
        },
        {
          "name": "菅平高原スノーリゾート (Sugadaira)",
          "snow": 0,
          "prefecture": "長野県",
          "lat": 36.5414,
          "lon": 138.3581
        },
        {
          "name": "軽井沢プリンスホテルスキー場 (Karuizawa)",
          "snow": 0,
          "prefecture": "長野県",
          "lat": 36.3353,
          "lon": 138.6339
        },
        {
          "name": "竜王スキーパーク (Ryuoo)",
          "snow": 0,
          "prefecture": "長野県",
          "lat": 36.805,
          "lon": 138.455
        },
        {
          "name": "斑尾高原スキー場 (Madarao)",
          "snow": 0,
          "prefecture": "長野県",
          "lat": 36.845,
          "lon": 138.305
        },
        {
          "name": "タングラムスキーサーカス (Tangram)",
          "snow": 0,
          "prefecture": "長野県",
          "lat": 36.855,
          "lon": 138.285
        },
        {
          "name": "車山高原SKYPARK (Kurumayama)",
          "snow": 0,
          "prefecture": "長野県",
          "lat": 36.105,
          "lon": 138.205
        },
        {
          "name": "奥志賀高原スキー場 (Okushiga)",
          "snow": 0,
          "prefecture": "長野県",
          "lat": 36.78,
          "lon": 138.54
        },
        {
          "name": "ふじてんスノーリゾート (Fujiten)",
          "snow": 0,
          "prefecture": "山梨県",
          "lat": 35.4328,
          "lon": 138.6947
        },
        {
          "name": "サンメドウズ清里 (Sun Meadows)",
          "snow": 0,
          "prefecture": "山梨県",
          "lat": 35.9381,
          "lon": 138.4069
        },
        {
          "name": "カムイみさかスキー場 (Misaka)",
          "snow": 0,
          "prefecture": "山梨県",
          "lat": 35.585,
          "lon": 138.655
        },
        {
          "name": "今庄365スキー場 (Imajo)",
          "snow": 0,
          "prefecture": "福井県",
          "lat": 35.755,
          "lon": 136.155
        },
        {
          "name": "金沢市営医王山スキー場 (Iozen)",
          "snow": 0,
          "prefecture": "石川県",
          "lat": 36.48,
          "lon": 136.7
        },
        {
          "name": "IOX-AROSA (イオックスアローザ)",
          "snow": 0,
          "prefecture": "富山県",
          "lat": 36.5149,
          "lon": 136.8209
        },
        {
          "name": "牛岳温泉スキー場 (Ushidake Onsen)",
          "snow": 0,
          "prefecture": "富山県",
          "lat": 36.5737,
          "lon": 137.057
        },
        {
          "name": "たいらスキー場 (Taira)",
          "snow": 0,
          "prefecture": "富山県",
          "lat": 36.45,
          "lon": 136.95
        },
        {
          "name": "びわ湖バレイ (Biwako Valley)",
          "snow": 0,
          "prefecture": "滋賀県",
          "lat": 35.203,
          "lon": 135.907
        },
        {
          "name": "グランスノー奥伊吹 (Okuibuki)",
          "snow": 0,
          "prefecture": "滋賀県",
          "lat": 35.522,
          "lon": 136.3872
        },
        {
          "name": "箱館山スキー場 (Hakodateyama)",
          "snow": 0,
          "prefecture": "滋賀県",
          "lat": 35.455,
          "lon": 136.035
        },
        {
          "name": "ハチ北高原スキー場 (Hachi Kita)",
          "snow": 0,
          "prefecture": "兵庫県",
          "lat": 35.4045,
          "lon": 134.558
        },
        {
          "name": "スカイバレースキー場 (Sky Valley)",
          "snow": 0,
          "prefecture": "兵庫県",
          "lat": 35.4489,
          "lon": 134.5458
        },
        {
          "name": "おじろスキー場 (Ojiro)",
          "snow": 0,
          "prefecture": "兵庫県",
          "lat": 35.425,
          "lon": 134.585
        },
        {
          "name": "ちくさ高原スキー場 (Chikusa)",
          "snow": 0,
          "prefecture": "兵庫県",
          "lat": 35.185,
          "lon": 134.455
        },
        {
          "name": "峰山高原リゾート (Mineyama)",
          "snow": 0,
          "prefecture": "兵庫県",
          "lat": 35.155,
          "lon": 134.705
        },
        {
          "name": "氷ノ山国際スキー場 (Hyonosen)",
          "snow": 0,
          "prefecture": "兵庫県",
          "lat": 35.355,
          "lon": 134.525
        },
        {
          "name": "恐羅漢スノーパーク (Osorakan)",
          "snow": 0,
          "prefecture": "広島県",
          "lat": 34.5957,
          "lon": 132.1466
        },
        {
          "name": "めがひらスキー場 (Megahira)",
          "snow": 0,
          "prefecture": "広島県",
          "lat": 34.4533,
          "lon": 132.1158
        },
        {
          "name": "芸北高原大佐スキー場 (Osa)",
          "snow": 0,
          "prefecture": "広島県",
          "lat": 34.7479,
          "lon": 132.2203
        },
        {
          "name": "ユートピアサイオト (Saioto)",
          "snow": 0,
          "prefecture": "広島県",
          "lat": 34.725,
          "lon": 132.355
        },
        {
          "name": "やわたハイランド191 (Yawata)",
          "snow": 0,
          "prefecture": "広島県",
          "lat": 34.6946,
          "lon": 132.16
        }
      ]
    },
    {
      "date": "2026-01-14",
      "display_date": "1/14 (水)",
      "rankings": [
        {
          "name": "月山スキー場 (Gassan)",
          "snow": 28.4,
          "prefecture": "山形県",
          "lat": 38.51892,
          "lon": 140.00662
        },
        {
          "name": "八甲田スキー場 (Hakkoda)",
          "snow": 16.8,
          "prefecture": "青森県",
          "lat": 40.6868,
          "lon": 140.8654
        },
        {
          "name": "ジュネス栗駒 (Jeunesse)",
          "snow": 13.7,
          "prefecture": "秋田県",
          "lat": 39.1822,
          "lon": 140.6713
        },
        {
          "name": "モヤヒルズ (Moya Hills)",
          "snow": 13.2,
          "prefecture": "青森県",
          "lat": 40.7275,
          "lon": 140.8033
        },
        {
          "name": "白馬八方尾根スキー場 (Hakuba Happo)",
          "snow": 11.4,
          "prefecture": "長野県",
          "lat": 36.7018,
          "lon": 137.8327
        },
        {
          "name": "Hakuba47",
          "snow": 11.4,
          "prefecture": "長野県",
          "lat": 36.685,
          "lon": 137.835
        },
        {
          "name": "立山山麓スキー場 (Tateyama Sanroku)",
          "snow": 11.1,
          "prefecture": "富山県",
          "lat": 36.5747,
          "lon": 137.417
        },
        {
          "name": "阿仁スキー場 (Ani)",
          "snow": 10.6,
          "prefecture": "秋田県",
          "lat": 39.953,
          "lon": 140.354
        },
        {
          "name": "シャルマン火打スキー場 (Charmant)",
          "snow": 10.5,
          "prefecture": "新潟県",
          "lat": 36.985,
          "lon": 138.055
        },
        {
          "name": "夏油高原スキー場 (Geto Kogen)",
          "snow": 10.4,
          "prefecture": "岩手県",
          "lat": 39.2311,
          "lon": 140.9419
        },
        {
          "name": "安比高原スキー場 (Appi Kogen)",
          "snow": 7.5,
          "prefecture": "岩手県",
          "lat": 40.0019,
          "lon": 140.9749
        },
        {
          "name": "白馬五竜スキー場 (Hakuba Goryu)",
          "snow": 7.4,
          "prefecture": "長野県",
          "lat": 36.6572,
          "lon": 137.8306
        },
        {
          "name": "マウンテンフィールド宮城蔵王すみかわ (Sumikawa)",
          "snow": 6.9,
          "prefecture": "宮城県",
          "lat": 38.125,
          "lon": 140.482
        },
        {
          "name": "グランデコスノーリゾート (Grandeco)",
          "snow": 6.9,
          "prefecture": "福島県",
          "lat": 37.6853,
          "lon": 140.0933
        },
        {
          "name": "たざわ湖スキー場 (Tazawako)",
          "snow": 6,
          "prefecture": "秋田県",
          "lat": 39.757,
          "lon": 140.758
        },
        {
          "name": "箕輪スキー場 (Minowa)",
          "snow": 6,
          "prefecture": "福島県",
          "lat": 37.64,
          "lon": 140.23
        },
        {
          "name": "沼尻スキー場 (Numajiri)",
          "snow": 6,
          "prefecture": "福島県",
          "lat": 37.625,
          "lon": 140.245
        },
        {
          "name": "白山一里野温泉スキー場 (Ichirino)",
          "snow": 5.5,
          "prefecture": "石川県",
          "lat": 36.2683,
          "lon": 136.715
        },
        {
          "name": "オニコウベスキー場 (Onikoube)",
          "snow": 5.4,
          "prefecture": "宮城県",
          "lat": 38.802,
          "lon": 140.645
        },
        {
          "name": "野沢温泉スキー場 (Nozawa Onsen)",
          "snow": 5.4,
          "prefecture": "長野県",
          "lat": 36.9197,
          "lon": 138.4485
        },
        {
          "name": "青森スプリング (Aomori Spring)",
          "snow": 5.2,
          "prefecture": "青森県",
          "lat": 40.7303,
          "lon": 140.2479
        },
        {
          "name": "ジャングルジャングル (Jungle Jungle)",
          "snow": 4.6,
          "prefecture": "山形県",
          "lat": 38.455,
          "lon": 140.455
        },
        {
          "name": "関温泉スキー場 (Seki Onsen)",
          "snow": 4.6,
          "prefecture": "新潟県",
          "lat": 36.895,
          "lon": 138.135
        },
        {
          "name": "蔵王温泉スキー場 (Zao Onsen)",
          "snow": 4.3,
          "prefecture": "山形県",
          "lat": 38.1636,
          "lon": 140.4042
        },
        {
          "name": "八幡平リゾート (Hachimantai)",
          "snow": 4.1,
          "prefecture": "岩手県",
          "lat": 39.9075,
          "lon": 141.0264
        },
        {
          "name": "GALA湯沢 (GALA Yuzawa)",
          "snow": 4,
          "prefecture": "新潟県",
          "lat": 36.9405,
          "lon": 138.7944
        },
        {
          "name": "舞子スノーリゾート (Maiko)",
          "snow": 4,
          "prefecture": "新潟県",
          "lat": 36.953,
          "lon": 138.835
        },
        {
          "name": "湯沢高原スキー場 (Yuzawa Kogen)",
          "snow": 4,
          "prefecture": "新潟県",
          "lat": 36.945,
          "lon": 138.805
        },
        {
          "name": "神立スノーリゾート (Kandatsu)",
          "snow": 3.8,
          "prefecture": "新潟県",
          "lat": 36.92,
          "lon": 138.835
        },
        {
          "name": "星野リゾート ネコマ マウンテン (Nekoma)",
          "snow": 3.6,
          "prefecture": "福島県",
          "lat": 37.6042,
          "lon": 140.0381
        },
        {
          "name": "猪苗代スキー場 (Inawashiro)",
          "snow": 3.6,
          "prefecture": "福島県",
          "lat": 37.575,
          "lon": 140.063
        },
        {
          "name": "白馬コルチナスキー場 (Cortina)",
          "snow": 3.6,
          "prefecture": "長野県",
          "lat": 36.785,
          "lon": 137.885
        },
        {
          "name": "白馬乗鞍温泉スキー場 (Norikura)",
          "snow": 3.6,
          "prefecture": "長野県",
          "lat": 36.775,
          "lon": 137.865
        },
        {
          "name": "大鰐温泉スキー場 (Owani Onsen)",
          "snow": 3.5,
          "prefecture": "青森県",
          "lat": 40.505,
          "lon": 140.556
        },
        {
          "name": "ほおのき平スキー場 (Honoki Daira)",
          "snow": 3.5,
          "prefecture": "岐阜県",
          "lat": 36.1436,
          "lon": 137.4528
        },
        {
          "name": "天元台高原 (Tengendai)",
          "snow": 3.3,
          "prefecture": "山形県",
          "lat": 37.7983,
          "lon": 140.1197
        },
        {
          "name": "かぐらスキー場 (Kagura)",
          "snow": 3.2,
          "prefecture": "新潟県",
          "lat": 36.8375,
          "lon": 138.7778
        },
        {
          "name": "群馬みなかみほうだいぎスキー場 (Houdaigi)",
          "snow": 3,
          "prefecture": "群馬県",
          "lat": 36.852,
          "lon": 139.055
        },
        {
          "name": "雫石スキー場 (Shizukuishi)",
          "snow": 2.7,
          "prefecture": "岩手県",
          "lat": 39.718,
          "lon": 140.9575
        },
        {
          "name": "万座温泉スキー場 (Manza Onsen)",
          "snow": 2.7,
          "prefecture": "群馬県",
          "lat": 36.6341,
          "lon": 138.5133
        },
        {
          "name": "ムイカスノーリゾート (Muika)",
          "snow": 2.7,
          "prefecture": "新潟県",
          "lat": 37.055,
          "lon": 138.955
        },
        {
          "name": "赤倉観光リゾート (Akakura)",
          "snow": 2.7,
          "prefecture": "新潟県",
          "lat": 36.885,
          "lon": 138.165
        },
        {
          "name": "福井和泉スキー場 (Fukui Izumi)",
          "snow": 2.7,
          "prefecture": "福井県",
          "lat": 35.9397,
          "lon": 136.69208
        },
        {
          "name": "上越国際スキー場 (Joetsu Kokusai)",
          "snow": 2.4,
          "prefecture": "新潟県",
          "lat": 37.015,
          "lon": 138.85
        },
        {
          "name": "石打丸山スキー場 (Ishiuchi)",
          "snow": 2.2,
          "prefecture": "新潟県",
          "lat": 36.9892,
          "lon": 138.8028
        },
        {
          "name": "奥志賀高原スキー場 (Okushiga)",
          "snow": 2.2,
          "prefecture": "長野県",
          "lat": 36.78,
          "lon": 138.54
        },
        {
          "name": "ホワイトワールド尾瀬岩鞍 (Oze Iwakura)",
          "snow": 2,
          "prefecture": "群馬県",
          "lat": 36.84,
          "lon": 139.22
        },
        {
          "name": "かたしな高原スキー場 (Katashina)",
          "snow": 2,
          "prefecture": "群馬県",
          "lat": 36.83,
          "lon": 139.23
        },
        {
          "name": "栂池高原スキー場 (Tsugaike)",
          "snow": 2,
          "prefecture": "長野県",
          "lat": 36.7536,
          "lon": 137.8767
        },
        {
          "name": "志賀高原 焼額山 (Shiga Kogen)",
          "snow": 2,
          "prefecture": "長野県",
          "lat": 36.7621,
          "lon": 138.5367
        },
        {
          "name": "川場スキー場 (Kawaba)",
          "snow": 1.9,
          "prefecture": "群馬県",
          "lat": 36.8122,
          "lon": 139.1083
        },
        {
          "name": "ウイングヒルズ白鳥 (Wing Hills)",
          "snow": 1.9,
          "prefecture": "岐阜県",
          "lat": 35.9672,
          "lon": 136.7906
        },
        {
          "name": "スノーウェーブパーク白鳥高原 (Shiratori Kogen)",
          "snow": 1.9,
          "prefecture": "岐阜県",
          "lat": 35.9397,
          "lon": 136.7864
        },
        {
          "name": "たいらスキー場 (Taira)",
          "snow": 1.8,
          "prefecture": "富山県",
          "lat": 36.45,
          "lon": 136.95
        },
        {
          "name": "ノルン水上スキー場 (Norn Minakami)",
          "snow": 1.7,
          "prefecture": "群馬県",
          "lat": 36.8042,
          "lon": 138.9722
        },
        {
          "name": "奥利根スノーパーク (Okutone)",
          "snow": 1.7,
          "prefecture": "群馬県",
          "lat": 36.805,
          "lon": 139.005
        },
        {
          "name": "みやぎ蔵王えぼし (Eboshi)",
          "snow": 1.5,
          "prefecture": "宮城県",
          "lat": 38.1257,
          "lon": 140.5422
        },
        {
          "name": "たんばらスキーパーク (Tambara)",
          "snow": 1.5,
          "prefecture": "群馬県",
          "lat": 36.7867,
          "lon": 139.0667
        },
        {
          "name": "苗場スキー場 (Naeba)",
          "snow": 1.5,
          "prefecture": "新潟県",
          "lat": 36.7933,
          "lon": 138.7844
        },
        {
          "name": "会津高原だいくらスキー場 (Daikura)",
          "snow": 1.4,
          "prefecture": "福島県",
          "lat": 37.155,
          "lon": 139.705
        },
        {
          "name": "斑尾高原スキー場 (Madarao)",
          "snow": 1.4,
          "prefecture": "長野県",
          "lat": 36.845,
          "lon": 138.305
        },
        {
          "name": "タングラムスキーサーカス (Tangram)",
          "snow": 1.4,
          "prefecture": "長野県",
          "lat": 36.855,
          "lon": 138.285
        },
        {
          "name": "戸隠スキー場 (Togakushi)",
          "snow": 1.4,
          "prefecture": "長野県",
          "lat": 36.765,
          "lon": 138.085
        },
        {
          "name": "岩手高原スノーパーク (Iwate Kogen)",
          "snow": 1.3,
          "prefecture": "岩手県",
          "lat": 39.715,
          "lon": 140.98
        },
        {
          "name": "白馬岩岳スノーフィールド (Iwatake)",
          "snow": 1.3,
          "prefecture": "長野県",
          "lat": 36.715,
          "lon": 137.865
        },
        {
          "name": "スプリングバレー仙台泉 (Spring Valley)",
          "snow": 1.1,
          "prefecture": "宮城県",
          "lat": 38.423,
          "lon": 140.7226
        },
        {
          "name": "太平山スキー場オーパス (Opas)",
          "snow": 1.1,
          "prefecture": "秋田県",
          "lat": 39.78,
          "lon": 140.18
        },
        {
          "name": "菅平高原スノーリゾート (Sugadaira)",
          "snow": 1.1,
          "prefecture": "長野県",
          "lat": 36.5414,
          "lon": 138.3581
        },
        {
          "name": "高鷲スノーパーク (Takasu Snow Park)",
          "snow": 1.1,
          "prefecture": "岐阜県",
          "lat": 35.998,
          "lon": 136.8773
        },
        {
          "name": "ダイナランド (Dynaland)",
          "snow": 1.1,
          "prefecture": "岐阜県",
          "lat": 35.9967,
          "lon": 136.8606
        },
        {
          "name": "鷲ヶ岳スキー場 (Washigatake)",
          "snow": 1.1,
          "prefecture": "岐阜県",
          "lat": 35.9794,
          "lon": 136.8483
        },
        {
          "name": "ひるがの高原スキー場 (Hirugano)",
          "snow": 1.1,
          "prefecture": "岐阜県",
          "lat": 35.985,
          "lon": 136.905
        },
        {
          "name": "白山セイモアスキー場 (Hakusan Seymour)",
          "snow": 1.1,
          "prefecture": "石川県",
          "lat": 36.3472,
          "lon": 136.6789
        },
        {
          "name": "マウントジーンズ那須 (Mt.JEANS)",
          "snow": 1,
          "prefecture": "栃木県",
          "lat": 37.1264,
          "lon": 139.988
        },
        {
          "name": "ロッテアライリゾート (Lotte Arai)",
          "snow": 0.9,
          "prefecture": "新潟県",
          "lat": 36.99064,
          "lon": 138.18138
        },
        {
          "name": "竜王スキーパーク (Ryuoo)",
          "snow": 0.9,
          "prefecture": "長野県",
          "lat": 36.805,
          "lon": 138.455
        },
        {
          "name": "丸沼高原スキー場 (Marunuma)",
          "snow": 0.8,
          "prefecture": "群馬県",
          "lat": 36.8183,
          "lon": 139.3364
        },
        {
          "name": "サンメドウズ清里 (Sun Meadows)",
          "snow": 0.8,
          "prefecture": "山梨県",
          "lat": 35.9381,
          "lon": 138.4069
        },
        {
          "name": "日光湯元温泉スキー場 (Nikko Yumoto)",
          "snow": 0.7,
          "prefecture": "栃木県",
          "lat": 36.805,
          "lon": 139.42
        },
        {
          "name": "車山高原SKYPARK (Kurumayama)",
          "snow": 0.7,
          "prefecture": "長野県",
          "lat": 36.105,
          "lon": 138.205
        },
        {
          "name": "サッポロテイネ (Sapporo Teine)",
          "snow": 0.6,
          "prefecture": "北海道",
          "lat": 43.0973,
          "lon": 141.2044
        },
        {
          "name": "妙高杉ノ原スキー場 (Myoko Suginohara)",
          "snow": 0.6,
          "prefecture": "新潟県",
          "lat": 36.8336,
          "lon": 138.1633
        },
        {
          "name": "ホワイトピアたかす (White Pia)",
          "snow": 0.3,
          "prefecture": "岐阜県",
          "lat": 35.956,
          "lon": 136.935
        },
        {
          "name": "めいほうスキー場 (Meiho)",
          "snow": 0.3,
          "prefecture": "岐阜県",
          "lat": 35.9418,
          "lon": 137.043
        },
        {
          "name": "富良野スキー場 (Furano)",
          "snow": 0.1,
          "prefecture": "北海道",
          "lat": 43.3243,
          "lon": 142.3456
        },
        {
          "name": "トマムスキー場 (Tomamu)",
          "snow": 0.1,
          "prefecture": "北海道",
          "lat": 43.0628,
          "lon": 142.6322
        },
        {
          "name": "サホロリゾート (Sahoro)",
          "snow": 0.1,
          "prefecture": "北海道",
          "lat": 43.1749,
          "lon": 142.8076
        },
        {
          "name": "大雪山旭岳ロープウェイ (Asahidake)",
          "snow": 0.1,
          "prefecture": "北海道",
          "lat": 43.6542,
          "lon": 142.7964
        },
        {
          "name": "ニセコユナイテッド (Niseko United)",
          "snow": 0,
          "prefecture": "北海道",
          "lat": 42.8631,
          "lon": 140.7042
        },
        {
          "name": "ルスツリゾート (Rusutsu)",
          "snow": 0,
          "prefecture": "北海道",
          "lat": 42.7533,
          "lon": 140.9029
        },
        {
          "name": "キロロスノーワールド (Kiroro)",
          "snow": 0,
          "prefecture": "北海道",
          "lat": 43.0722,
          "lon": 140.9781
        },
        {
          "name": "札幌国際スキー場 (Sapporo Kokusai)",
          "snow": 0,
          "prefecture": "北海道",
          "lat": 43.0724,
          "lon": 141.0827
        },
        {
          "name": "カムイスキーリンクス (Kamui)",
          "snow": 0,
          "prefecture": "北海道",
          "lat": 43.6444,
          "lon": 142.2283
        },
        {
          "name": "ニセコモイワスキー場 (Niseko Moiwa)",
          "snow": 0,
          "prefecture": "北海道",
          "lat": 42.855,
          "lon": 140.638
        },
        {
          "name": "ハンターマウンテン塩原 (Hunter Mt)",
          "snow": 0,
          "prefecture": "栃木県",
          "lat": 36.9377,
          "lon": 139.7744
        },
        {
          "name": "エーデルワイススキーリゾート (Edelweiss)",
          "snow": 0,
          "prefecture": "栃木県",
          "lat": 36.932,
          "lon": 139.755
        },
        {
          "name": "軽井沢プリンスホテルスキー場 (Karuizawa)",
          "snow": 0,
          "prefecture": "長野県",
          "lat": 36.3353,
          "lon": 138.6339
        },
        {
          "name": "ふじてんスノーリゾート (Fujiten)",
          "snow": 0,
          "prefecture": "山梨県",
          "lat": 35.4328,
          "lon": 138.6947
        },
        {
          "name": "カムイみさかスキー場 (Misaka)",
          "snow": 0,
          "prefecture": "山梨県",
          "lat": 35.585,
          "lon": 138.655
        },
        {
          "name": "スキージャム勝山 (Ski Jam Katsuyama)",
          "snow": 0,
          "prefecture": "福井県",
          "lat": 36.0733,
          "lon": 136.5556
        },
        {
          "name": "今庄365スキー場 (Imajo)",
          "snow": 0,
          "prefecture": "福井県",
          "lat": 35.755,
          "lon": 136.155
        },
        {
          "name": "金沢市営医王山スキー場 (Iozen)",
          "snow": 0,
          "prefecture": "石川県",
          "lat": 36.48,
          "lon": 136.7
        },
        {
          "name": "IOX-AROSA (イオックスアローザ)",
          "snow": 0,
          "prefecture": "富山県",
          "lat": 36.5149,
          "lon": 136.8209
        },
        {
          "name": "牛岳温泉スキー場 (Ushidake Onsen)",
          "snow": 0,
          "prefecture": "富山県",
          "lat": 36.5737,
          "lon": 137.057
        },
        {
          "name": "びわ湖バレイ (Biwako Valley)",
          "snow": 0,
          "prefecture": "滋賀県",
          "lat": 35.203,
          "lon": 135.907
        },
        {
          "name": "グランスノー奥伊吹 (Okuibuki)",
          "snow": 0,
          "prefecture": "滋賀県",
          "lat": 35.522,
          "lon": 136.3872
        },
        {
          "name": "箱館山スキー場 (Hakodateyama)",
          "snow": 0,
          "prefecture": "滋賀県",
          "lat": 35.455,
          "lon": 136.035
        },
        {
          "name": "ハチ北高原スキー場 (Hachi Kita)",
          "snow": 0,
          "prefecture": "兵庫県",
          "lat": 35.4045,
          "lon": 134.558
        },
        {
          "name": "スカイバレースキー場 (Sky Valley)",
          "snow": 0,
          "prefecture": "兵庫県",
          "lat": 35.4489,
          "lon": 134.5458
        },
        {
          "name": "おじろスキー場 (Ojiro)",
          "snow": 0,
          "prefecture": "兵庫県",
          "lat": 35.425,
          "lon": 134.585
        },
        {
          "name": "ちくさ高原スキー場 (Chikusa)",
          "snow": 0,
          "prefecture": "兵庫県",
          "lat": 35.185,
          "lon": 134.455
        },
        {
          "name": "峰山高原リゾート (Mineyama)",
          "snow": 0,
          "prefecture": "兵庫県",
          "lat": 35.155,
          "lon": 134.705
        },
        {
          "name": "氷ノ山国際スキー場 (Hyonosen)",
          "snow": 0,
          "prefecture": "兵庫県",
          "lat": 35.355,
          "lon": 134.525
        },
        {
          "name": "恐羅漢スノーパーク (Osorakan)",
          "snow": 0,
          "prefecture": "広島県",
          "lat": 34.5957,
          "lon": 132.1466
        },
        {
          "name": "めがひらスキー場 (Megahira)",
          "snow": 0,
          "prefecture": "広島県",
          "lat": 34.4533,
          "lon": 132.1158
        },
        {
          "name": "芸北高原大佐スキー場 (Osa)",
          "snow": 0,
          "prefecture": "広島県",
          "lat": 34.7479,
          "lon": 132.2203
        },
        {
          "name": "ユートピアサイオト (Saioto)",
          "snow": 0,
          "prefecture": "広島県",
          "lat": 34.725,
          "lon": 132.355
        },
        {
          "name": "やわたハイランド191 (Yawata)",
          "snow": 0,
          "prefecture": "広島県",
          "lat": 34.6946,
          "lon": 132.16
        }
      ]
    },
    {
      "date": "2026-01-15",
      "display_date": "1/15 (木)",
      "rankings": [
        {
          "name": "サッポロテイネ (Sapporo Teine)",
          "snow": 3.8,
          "prefecture": "北海道",
          "lat": 43.0973,
          "lon": 141.2044
        },
        {
          "name": "富良野スキー場 (Furano)",
          "snow": 2.9,
          "prefecture": "北海道",
          "lat": 43.3243,
          "lon": 142.3456
        },
        {
          "name": "ホワイトワールド尾瀬岩鞍 (Oze Iwakura)",
          "snow": 2.5,
          "prefecture": "群馬県",
          "lat": 36.84,
          "lon": 139.22
        },
        {
          "name": "かたしな高原スキー場 (Katashina)",
          "snow": 2.5,
          "prefecture": "群馬県",
          "lat": 36.83,
          "lon": 139.23
        },
        {
          "name": "阿仁スキー場 (Ani)",
          "snow": 2.3,
          "prefecture": "秋田県",
          "lat": 39.953,
          "lon": 140.354
        },
        {
          "name": "大雪山旭岳ロープウェイ (Asahidake)",
          "snow": 2.2,
          "prefecture": "北海道",
          "lat": 43.6542,
          "lon": 142.7964
        },
        {
          "name": "キロロスノーワールド (Kiroro)",
          "snow": 1.9,
          "prefecture": "北海道",
          "lat": 43.0722,
          "lon": 140.9781
        },
        {
          "name": "ニセコユナイテッド (Niseko United)",
          "snow": 1.8,
          "prefecture": "北海道",
          "lat": 42.8631,
          "lon": 140.7042
        },
        {
          "name": "たざわ湖スキー場 (Tazawako)",
          "snow": 1.8,
          "prefecture": "秋田県",
          "lat": 39.757,
          "lon": 140.758
        },
        {
          "name": "大鰐温泉スキー場 (Owani Onsen)",
          "snow": 1.6,
          "prefecture": "青森県",
          "lat": 40.505,
          "lon": 140.556
        },
        {
          "name": "月山スキー場 (Gassan)",
          "snow": 1.6,
          "prefecture": "山形県",
          "lat": 38.51892,
          "lon": 140.00662
        },
        {
          "name": "ニセコモイワスキー場 (Niseko Moiwa)",
          "snow": 1.5,
          "prefecture": "北海道",
          "lat": 42.855,
          "lon": 140.638
        },
        {
          "name": "カムイスキーリンクス (Kamui)",
          "snow": 1.4,
          "prefecture": "北海道",
          "lat": 43.6444,
          "lon": 142.2283
        },
        {
          "name": "丸沼高原スキー場 (Marunuma)",
          "snow": 1.4,
          "prefecture": "群馬県",
          "lat": 36.8183,
          "lon": 139.3364
        },
        {
          "name": "舞子スノーリゾート (Maiko)",
          "snow": 1.4,
          "prefecture": "新潟県",
          "lat": 36.953,
          "lon": 138.835
        },
        {
          "name": "神立スノーリゾート (Kandatsu)",
          "snow": 1.4,
          "prefecture": "新潟県",
          "lat": 36.92,
          "lon": 138.835
        },
        {
          "name": "札幌国際スキー場 (Sapporo Kokusai)",
          "snow": 1.3,
          "prefecture": "北海道",
          "lat": 43.0724,
          "lon": 141.0827
        },
        {
          "name": "会津高原だいくらスキー場 (Daikura)",
          "snow": 1.3,
          "prefecture": "福島県",
          "lat": 37.155,
          "lon": 139.705
        },
        {
          "name": "マウントジーンズ那須 (Mt.JEANS)",
          "snow": 1.3,
          "prefecture": "栃木県",
          "lat": 37.1264,
          "lon": 139.988
        },
        {
          "name": "八幡平リゾート (Hachimantai)",
          "snow": 1.2,
          "prefecture": "岩手県",
          "lat": 39.9075,
          "lon": 141.0264
        },
        {
          "name": "ジュネス栗駒 (Jeunesse)",
          "snow": 1.1,
          "prefecture": "秋田県",
          "lat": 39.1822,
          "lon": 140.6713
        },
        {
          "name": "群馬みなかみほうだいぎスキー場 (Houdaigi)",
          "snow": 1.1,
          "prefecture": "群馬県",
          "lat": 36.852,
          "lon": 139.055
        },
        {
          "name": "ムイカスノーリゾート (Muika)",
          "snow": 1.1,
          "prefecture": "新潟県",
          "lat": 37.055,
          "lon": 138.955
        },
        {
          "name": "上越国際スキー場 (Joetsu Kokusai)",
          "snow": 1.1,
          "prefecture": "新潟県",
          "lat": 37.015,
          "lon": 138.85
        },
        {
          "name": "安比高原スキー場 (Appi Kogen)",
          "snow": 1,
          "prefecture": "岩手県",
          "lat": 40.0019,
          "lon": 140.9749
        },
        {
          "name": "ハンターマウンテン塩原 (Hunter Mt)",
          "snow": 1,
          "prefecture": "栃木県",
          "lat": 36.9377,
          "lon": 139.7744
        },
        {
          "name": "GALA湯沢 (GALA Yuzawa)",
          "snow": 1,
          "prefecture": "新潟県",
          "lat": 36.9405,
          "lon": 138.7944
        },
        {
          "name": "石打丸山スキー場 (Ishiuchi)",
          "snow": 1,
          "prefecture": "新潟県",
          "lat": 36.9892,
          "lon": 138.8028
        },
        {
          "name": "湯沢高原スキー場 (Yuzawa Kogen)",
          "snow": 1,
          "prefecture": "新潟県",
          "lat": 36.945,
          "lon": 138.805
        },
        {
          "name": "雫石スキー場 (Shizukuishi)",
          "snow": 0.8,
          "prefecture": "岩手県",
          "lat": 39.718,
          "lon": 140.9575
        },
        {
          "name": "岩手高原スノーパーク (Iwate Kogen)",
          "snow": 0.8,
          "prefecture": "岩手県",
          "lat": 39.715,
          "lon": 140.98
        },
        {
          "name": "川場スキー場 (Kawaba)",
          "snow": 0.8,
          "prefecture": "群馬県",
          "lat": 36.8122,
          "lon": 139.1083
        },
        {
          "name": "たんばらスキーパーク (Tambara)",
          "snow": 0.8,
          "prefecture": "群馬県",
          "lat": 36.7867,
          "lon": 139.0667
        },
        {
          "name": "野沢温泉スキー場 (Nozawa Onsen)",
          "snow": 0.8,
          "prefecture": "長野県",
          "lat": 36.9197,
          "lon": 138.4485
        },
        {
          "name": "ルスツリゾート (Rusutsu)",
          "snow": 0.7,
          "prefecture": "北海道",
          "lat": 42.7533,
          "lon": 140.9029
        },
        {
          "name": "天元台高原 (Tengendai)",
          "snow": 0.7,
          "prefecture": "山形県",
          "lat": 37.7983,
          "lon": 140.1197
        },
        {
          "name": "白山一里野温泉スキー場 (Ichirino)",
          "snow": 0.7,
          "prefecture": "石川県",
          "lat": 36.2683,
          "lon": 136.715
        },
        {
          "name": "たいらスキー場 (Taira)",
          "snow": 0.7,
          "prefecture": "富山県",
          "lat": 36.45,
          "lon": 136.95
        },
        {
          "name": "トマムスキー場 (Tomamu)",
          "snow": 0.6,
          "prefecture": "北海道",
          "lat": 43.0628,
          "lon": 142.6322
        },
        {
          "name": "サホロリゾート (Sahoro)",
          "snow": 0.6,
          "prefecture": "北海道",
          "lat": 43.1749,
          "lon": 142.8076
        },
        {
          "name": "八甲田スキー場 (Hakkoda)",
          "snow": 0.6,
          "prefecture": "青森県",
          "lat": 40.6868,
          "lon": 140.8654
        },
        {
          "name": "モヤヒルズ (Moya Hills)",
          "snow": 0.6,
          "prefecture": "青森県",
          "lat": 40.7275,
          "lon": 140.8033
        },
        {
          "name": "白馬八方尾根スキー場 (Hakuba Happo)",
          "snow": 0.6,
          "prefecture": "長野県",
          "lat": 36.7018,
          "lon": 137.8327
        },
        {
          "name": "栂池高原スキー場 (Tsugaike)",
          "snow": 0.6,
          "prefecture": "長野県",
          "lat": 36.7536,
          "lon": 137.8767
        },
        {
          "name": "白馬コルチナスキー場 (Cortina)",
          "snow": 0.6,
          "prefecture": "長野県",
          "lat": 36.785,
          "lon": 137.885
        },
        {
          "name": "白馬乗鞍温泉スキー場 (Norikura)",
          "snow": 0.6,
          "prefecture": "長野県",
          "lat": 36.775,
          "lon": 137.865
        },
        {
          "name": "白馬岩岳スノーフィールド (Iwatake)",
          "snow": 0.6,
          "prefecture": "長野県",
          "lat": 36.715,
          "lon": 137.865
        },
        {
          "name": "夏油高原スキー場 (Geto Kogen)",
          "snow": 0.5,
          "prefecture": "岩手県",
          "lat": 39.2311,
          "lon": 140.9419
        },
        {
          "name": "みやぎ蔵王えぼし (Eboshi)",
          "snow": 0.4,
          "prefecture": "宮城県",
          "lat": 38.1257,
          "lon": 140.5422
        },
        {
          "name": "マウンテンフィールド宮城蔵王すみかわ (Sumikawa)",
          "snow": 0.4,
          "prefecture": "宮城県",
          "lat": 38.125,
          "lon": 140.482
        },
        {
          "name": "蔵王温泉スキー場 (Zao Onsen)",
          "snow": 0.4,
          "prefecture": "山形県",
          "lat": 38.1636,
          "lon": 140.4042
        },
        {
          "name": "かぐらスキー場 (Kagura)",
          "snow": 0.4,
          "prefecture": "新潟県",
          "lat": 36.8375,
          "lon": 138.7778
        },
        {
          "name": "箕輪スキー場 (Minowa)",
          "snow": 0.3,
          "prefecture": "福島県",
          "lat": 37.64,
          "lon": 140.23
        },
        {
          "name": "沼尻スキー場 (Numajiri)",
          "snow": 0.3,
          "prefecture": "福島県",
          "lat": 37.625,
          "lon": 140.245
        },
        {
          "name": "日光湯元温泉スキー場 (Nikko Yumoto)",
          "snow": 0.3,
          "prefecture": "栃木県",
          "lat": 36.805,
          "lon": 139.42
        },
        {
          "name": "ウイングヒルズ白鳥 (Wing Hills)",
          "snow": 0.3,
          "prefecture": "岐阜県",
          "lat": 35.9672,
          "lon": 136.7906
        },
        {
          "name": "スノーウェーブパーク白鳥高原 (Shiratori Kogen)",
          "snow": 0.3,
          "prefecture": "岐阜県",
          "lat": 35.9397,
          "lon": 136.7864
        },
        {
          "name": "福井和泉スキー場 (Fukui Izumi)",
          "snow": 0.3,
          "prefecture": "福井県",
          "lat": 35.9397,
          "lon": 136.69208
        },
        {
          "name": "オニコウベスキー場 (Onikoube)",
          "snow": 0.2,
          "prefecture": "宮城県",
          "lat": 38.802,
          "lon": 140.645
        },
        {
          "name": "星野リゾート ネコマ マウンテン (Nekoma)",
          "snow": 0.2,
          "prefecture": "福島県",
          "lat": 37.6042,
          "lon": 140.0381
        },
        {
          "name": "グランデコスノーリゾート (Grandeco)",
          "snow": 0.2,
          "prefecture": "福島県",
          "lat": 37.6853,
          "lon": 140.0933
        },
        {
          "name": "猪苗代スキー場 (Inawashiro)",
          "snow": 0.2,
          "prefecture": "福島県",
          "lat": 37.575,
          "lon": 140.063
        },
        {
          "name": "白馬五竜スキー場 (Hakuba Goryu)",
          "snow": 0.2,
          "prefecture": "長野県",
          "lat": 36.6572,
          "lon": 137.8306
        },
        {
          "name": "志賀高原 焼額山 (Shiga Kogen)",
          "snow": 0.2,
          "prefecture": "長野県",
          "lat": 36.7621,
          "lon": 138.5367
        },
        {
          "name": "Hakuba47",
          "snow": 0.2,
          "prefecture": "長野県",
          "lat": 36.685,
          "lon": 137.835
        },
        {
          "name": "竜王スキーパーク (Ryuoo)",
          "snow": 0.2,
          "prefecture": "長野県",
          "lat": 36.805,
          "lon": 138.455
        },
        {
          "name": "奥志賀高原スキー場 (Okushiga)",
          "snow": 0.2,
          "prefecture": "長野県",
          "lat": 36.78,
          "lon": 138.54
        },
        {
          "name": "高鷲スノーパーク (Takasu Snow Park)",
          "snow": 0.2,
          "prefecture": "岐阜県",
          "lat": 35.998,
          "lon": 136.8773
        },
        {
          "name": "ダイナランド (Dynaland)",
          "snow": 0.2,
          "prefecture": "岐阜県",
          "lat": 35.9967,
          "lon": 136.8606
        },
        {
          "name": "鷲ヶ岳スキー場 (Washigatake)",
          "snow": 0.2,
          "prefecture": "岐阜県",
          "lat": 35.9794,
          "lon": 136.8483
        },
        {
          "name": "ホワイトピアたかす (White Pia)",
          "snow": 0.2,
          "prefecture": "岐阜県",
          "lat": 35.956,
          "lon": 136.935
        },
        {
          "name": "ひるがの高原スキー場 (Hirugano)",
          "snow": 0.2,
          "prefecture": "岐阜県",
          "lat": 35.985,
          "lon": 136.905
        },
        {
          "name": "ロッテアライリゾート (Lotte Arai)",
          "snow": 0.1,
          "prefecture": "新潟県",
          "lat": 36.99064,
          "lon": 138.18138
        },
        {
          "name": "妙高杉ノ原スキー場 (Myoko Suginohara)",
          "snow": 0.1,
          "prefecture": "新潟県",
          "lat": 36.8336,
          "lon": 138.1633
        },
        {
          "name": "シャルマン火打スキー場 (Charmant)",
          "snow": 0.1,
          "prefecture": "新潟県",
          "lat": 36.985,
          "lon": 138.055
        },
        {
          "name": "赤倉観光リゾート (Akakura)",
          "snow": 0.1,
          "prefecture": "新潟県",
          "lat": 36.885,
          "lon": 138.165
        },
        {
          "name": "関温泉スキー場 (Seki Onsen)",
          "snow": 0.1,
          "prefecture": "新潟県",
          "lat": 36.895,
          "lon": 138.135
        },
        {
          "name": "斑尾高原スキー場 (Madarao)",
          "snow": 0.1,
          "prefecture": "長野県",
          "lat": 36.845,
          "lon": 138.305
        },
        {
          "name": "タングラムスキーサーカス (Tangram)",
          "snow": 0.1,
          "prefecture": "長野県",
          "lat": 36.855,
          "lon": 138.285
        },
        {
          "name": "ほおのき平スキー場 (Honoki Daira)",
          "snow": 0.1,
          "prefecture": "岐阜県",
          "lat": 36.1436,
          "lon": 137.4528
        },
        {
          "name": "スキージャム勝山 (Ski Jam Katsuyama)",
          "snow": 0.1,
          "prefecture": "福井県",
          "lat": 36.0733,
          "lon": 136.5556
        },
        {
          "name": "青森スプリング (Aomori Spring)",
          "snow": 0,
          "prefecture": "青森県",
          "lat": 40.7303,
          "lon": 140.2479
        },
        {
          "name": "スプリングバレー仙台泉 (Spring Valley)",
          "snow": 0,
          "prefecture": "宮城県",
          "lat": 38.423,
          "lon": 140.7226
        },
        {
          "name": "太平山スキー場オーパス (Opas)",
          "snow": 0,
          "prefecture": "秋田県",
          "lat": 39.78,
          "lon": 140.18
        },
        {
          "name": "ジャングルジャングル (Jungle Jungle)",
          "snow": 0,
          "prefecture": "山形県",
          "lat": 38.455,
          "lon": 140.455
        },
        {
          "name": "エーデルワイススキーリゾート (Edelweiss)",
          "snow": 0,
          "prefecture": "栃木県",
          "lat": 36.932,
          "lon": 139.755
        },
        {
          "name": "万座温泉スキー場 (Manza Onsen)",
          "snow": 0,
          "prefecture": "群馬県",
          "lat": 36.6341,
          "lon": 138.5133
        },
        {
          "name": "ノルン水上スキー場 (Norn Minakami)",
          "snow": 0,
          "prefecture": "群馬県",
          "lat": 36.8042,
          "lon": 138.9722
        },
        {
          "name": "奥利根スノーパーク (Okutone)",
          "snow": 0,
          "prefecture": "群馬県",
          "lat": 36.805,
          "lon": 139.005
        },
        {
          "name": "苗場スキー場 (Naeba)",
          "snow": 0,
          "prefecture": "新潟県",
          "lat": 36.7933,
          "lon": 138.7844
        },
        {
          "name": "菅平高原スノーリゾート (Sugadaira)",
          "snow": 0,
          "prefecture": "長野県",
          "lat": 36.5414,
          "lon": 138.3581
        },
        {
          "name": "軽井沢プリンスホテルスキー場 (Karuizawa)",
          "snow": 0,
          "prefecture": "長野県",
          "lat": 36.3353,
          "lon": 138.6339
        },
        {
          "name": "戸隠スキー場 (Togakushi)",
          "snow": 0,
          "prefecture": "長野県",
          "lat": 36.765,
          "lon": 138.085
        },
        {
          "name": "車山高原SKYPARK (Kurumayama)",
          "snow": 0,
          "prefecture": "長野県",
          "lat": 36.105,
          "lon": 138.205
        },
        {
          "name": "ふじてんスノーリゾート (Fujiten)",
          "snow": 0,
          "prefecture": "山梨県",
          "lat": 35.4328,
          "lon": 138.6947
        },
        {
          "name": "サンメドウズ清里 (Sun Meadows)",
          "snow": 0,
          "prefecture": "山梨県",
          "lat": 35.9381,
          "lon": 138.4069
        },
        {
          "name": "カムイみさかスキー場 (Misaka)",
          "snow": 0,
          "prefecture": "山梨県",
          "lat": 35.585,
          "lon": 138.655
        },
        {
          "name": "めいほうスキー場 (Meiho)",
          "snow": 0,
          "prefecture": "岐阜県",
          "lat": 35.9418,
          "lon": 137.043
        },
        {
          "name": "今庄365スキー場 (Imajo)",
          "snow": 0,
          "prefecture": "福井県",
          "lat": 35.755,
          "lon": 136.155
        },
        {
          "name": "白山セイモアスキー場 (Hakusan Seymour)",
          "snow": 0,
          "prefecture": "石川県",
          "lat": 36.3472,
          "lon": 136.6789
        },
        {
          "name": "金沢市営医王山スキー場 (Iozen)",
          "snow": 0,
          "prefecture": "石川県",
          "lat": 36.48,
          "lon": 136.7
        },
        {
          "name": "立山山麓スキー場 (Tateyama Sanroku)",
          "snow": 0,
          "prefecture": "富山県",
          "lat": 36.5747,
          "lon": 137.417
        },
        {
          "name": "IOX-AROSA (イオックスアローザ)",
          "snow": 0,
          "prefecture": "富山県",
          "lat": 36.5149,
          "lon": 136.8209
        },
        {
          "name": "牛岳温泉スキー場 (Ushidake Onsen)",
          "snow": 0,
          "prefecture": "富山県",
          "lat": 36.5737,
          "lon": 137.057
        },
        {
          "name": "びわ湖バレイ (Biwako Valley)",
          "snow": 0,
          "prefecture": "滋賀県",
          "lat": 35.203,
          "lon": 135.907
        },
        {
          "name": "グランスノー奥伊吹 (Okuibuki)",
          "snow": 0,
          "prefecture": "滋賀県",
          "lat": 35.522,
          "lon": 136.3872
        },
        {
          "name": "箱館山スキー場 (Hakodateyama)",
          "snow": 0,
          "prefecture": "滋賀県",
          "lat": 35.455,
          "lon": 136.035
        },
        {
          "name": "ハチ北高原スキー場 (Hachi Kita)",
          "snow": 0,
          "prefecture": "兵庫県",
          "lat": 35.4045,
          "lon": 134.558
        },
        {
          "name": "スカイバレースキー場 (Sky Valley)",
          "snow": 0,
          "prefecture": "兵庫県",
          "lat": 35.4489,
          "lon": 134.5458
        },
        {
          "name": "おじろスキー場 (Ojiro)",
          "snow": 0,
          "prefecture": "兵庫県",
          "lat": 35.425,
          "lon": 134.585
        },
        {
          "name": "ちくさ高原スキー場 (Chikusa)",
          "snow": 0,
          "prefecture": "兵庫県",
          "lat": 35.185,
          "lon": 134.455
        },
        {
          "name": "峰山高原リゾート (Mineyama)",
          "snow": 0,
          "prefecture": "兵庫県",
          "lat": 35.155,
          "lon": 134.705
        },
        {
          "name": "氷ノ山国際スキー場 (Hyonosen)",
          "snow": 0,
          "prefecture": "兵庫県",
          "lat": 35.355,
          "lon": 134.525
        },
        {
          "name": "恐羅漢スノーパーク (Osorakan)",
          "snow": 0,
          "prefecture": "広島県",
          "lat": 34.5957,
          "lon": 132.1466
        },
        {
          "name": "めがひらスキー場 (Megahira)",
          "snow": 0,
          "prefecture": "広島県",
          "lat": 34.4533,
          "lon": 132.1158
        },
        {
          "name": "芸北高原大佐スキー場 (Osa)",
          "snow": 0,
          "prefecture": "広島県",
          "lat": 34.7479,
          "lon": 132.2203
        },
        {
          "name": "ユートピアサイオト (Saioto)",
          "snow": 0,
          "prefecture": "広島県",
          "lat": 34.725,
          "lon": 132.355
        },
        {
          "name": "やわたハイランド191 (Yawata)",
          "snow": 0,
          "prefecture": "広島県",
          "lat": 34.6946,
          "lon": 132.16
        }
      ]
    },
    {
      "date": "2026-01-16",
      "display_date": "1/16 (金)",
      "rankings": [
        {
          "name": "妙高杉ノ原スキー場 (Myoko Suginohara)",
          "snow": 3.7,
          "prefecture": "新潟県",
          "lat": 36.8336,
          "lon": 138.1633
        },
        {
          "name": "関温泉スキー場 (Seki Onsen)",
          "snow": 3.7,
          "prefecture": "新潟県",
          "lat": 36.895,
          "lon": 138.135
        },
        {
          "name": "斑尾高原スキー場 (Madarao)",
          "snow": 3.7,
          "prefecture": "長野県",
          "lat": 36.845,
          "lon": 138.305
        },
        {
          "name": "タングラムスキーサーカス (Tangram)",
          "snow": 3.7,
          "prefecture": "長野県",
          "lat": 36.855,
          "lon": 138.285
        },
        {
          "name": "めいほうスキー場 (Meiho)",
          "snow": 3.7,
          "prefecture": "岐阜県",
          "lat": 35.9418,
          "lon": 137.043
        },
        {
          "name": "白馬コルチナスキー場 (Cortina)",
          "snow": 3.1,
          "prefecture": "長野県",
          "lat": 36.785,
          "lon": 137.885
        },
        {
          "name": "白馬乗鞍温泉スキー場 (Norikura)",
          "snow": 3.1,
          "prefecture": "長野県",
          "lat": 36.775,
          "lon": 137.865
        },
        {
          "name": "雫石スキー場 (Shizukuishi)",
          "snow": 2.4,
          "prefecture": "岩手県",
          "lat": 39.718,
          "lon": 140.9575
        },
        {
          "name": "岩手高原スノーパーク (Iwate Kogen)",
          "snow": 2.4,
          "prefecture": "岩手県",
          "lat": 39.715,
          "lon": 140.98
        },
        {
          "name": "ウイングヒルズ白鳥 (Wing Hills)",
          "snow": 2.3,
          "prefecture": "岐阜県",
          "lat": 35.9672,
          "lon": 136.7906
        },
        {
          "name": "スノーウェーブパーク白鳥高原 (Shiratori Kogen)",
          "snow": 2.3,
          "prefecture": "岐阜県",
          "lat": 35.9397,
          "lon": 136.7864
        },
        {
          "name": "車山高原SKYPARK (Kurumayama)",
          "snow": 2.1,
          "prefecture": "長野県",
          "lat": 36.105,
          "lon": 138.205
        },
        {
          "name": "高鷲スノーパーク (Takasu Snow Park)",
          "snow": 2.1,
          "prefecture": "岐阜県",
          "lat": 35.998,
          "lon": 136.8773
        },
        {
          "name": "ダイナランド (Dynaland)",
          "snow": 2.1,
          "prefecture": "岐阜県",
          "lat": 35.9967,
          "lon": 136.8606
        },
        {
          "name": "鷲ヶ岳スキー場 (Washigatake)",
          "snow": 2.1,
          "prefecture": "岐阜県",
          "lat": 35.9794,
          "lon": 136.8483
        },
        {
          "name": "ホワイトピアたかす (White Pia)",
          "snow": 2.1,
          "prefecture": "岐阜県",
          "lat": 35.956,
          "lon": 136.935
        },
        {
          "name": "八甲田スキー場 (Hakkoda)",
          "snow": 2,
          "prefecture": "青森県",
          "lat": 40.6868,
          "lon": 140.8654
        },
        {
          "name": "モヤヒルズ (Moya Hills)",
          "snow": 2,
          "prefecture": "青森県",
          "lat": 40.7275,
          "lon": 140.8033
        },
        {
          "name": "サンメドウズ清里 (Sun Meadows)",
          "snow": 1.9,
          "prefecture": "山梨県",
          "lat": 35.9381,
          "lon": 138.4069
        },
        {
          "name": "ニセコモイワスキー場 (Niseko Moiwa)",
          "snow": 1.6,
          "prefecture": "北海道",
          "lat": 42.855,
          "lon": 140.638
        },
        {
          "name": "ルスツリゾート (Rusutsu)",
          "snow": 1.5,
          "prefecture": "北海道",
          "lat": 42.7533,
          "lon": 140.9029
        },
        {
          "name": "戸隠スキー場 (Togakushi)",
          "snow": 1.5,
          "prefecture": "長野県",
          "lat": 36.765,
          "lon": 138.085
        },
        {
          "name": "白馬五竜スキー場 (Hakuba Goryu)",
          "snow": 1.4,
          "prefecture": "長野県",
          "lat": 36.6572,
          "lon": 137.8306
        },
        {
          "name": "ニセコユナイテッド (Niseko United)",
          "snow": 1.3,
          "prefecture": "北海道",
          "lat": 42.8631,
          "lon": 140.7042
        },
        {
          "name": "富良野スキー場 (Furano)",
          "snow": 1.1,
          "prefecture": "北海道",
          "lat": 43.3243,
          "lon": 142.3456
        },
        {
          "name": "サッポロテイネ (Sapporo Teine)",
          "snow": 1.1,
          "prefecture": "北海道",
          "lat": 43.0973,
          "lon": 141.2044
        },
        {
          "name": "トマムスキー場 (Tomamu)",
          "snow": 1,
          "prefecture": "北海道",
          "lat": 43.0628,
          "lon": 142.6322
        },
        {
          "name": "サホロリゾート (Sahoro)",
          "snow": 1,
          "prefecture": "北海道",
          "lat": 43.1749,
          "lon": 142.8076
        },
        {
          "name": "大雪山旭岳ロープウェイ (Asahidake)",
          "snow": 0.7,
          "prefecture": "北海道",
          "lat": 43.6542,
          "lon": 142.7964
        },
        {
          "name": "青森スプリング (Aomori Spring)",
          "snow": 0.6,
          "prefecture": "青森県",
          "lat": 40.7303,
          "lon": 140.2479
        },
        {
          "name": "ほおのき平スキー場 (Honoki Daira)",
          "snow": 0.6,
          "prefecture": "岐阜県",
          "lat": 36.1436,
          "lon": 137.4528
        },
        {
          "name": "夏油高原スキー場 (Geto Kogen)",
          "snow": 0.5,
          "prefecture": "岩手県",
          "lat": 39.2311,
          "lon": 140.9419
        },
        {
          "name": "阿仁スキー場 (Ani)",
          "snow": 0.5,
          "prefecture": "秋田県",
          "lat": 39.953,
          "lon": 140.354
        },
        {
          "name": "札幌国際スキー場 (Sapporo Kokusai)",
          "snow": 0.4,
          "prefecture": "北海道",
          "lat": 43.0724,
          "lon": 141.0827
        },
        {
          "name": "カムイスキーリンクス (Kamui)",
          "snow": 0.4,
          "prefecture": "北海道",
          "lat": 43.6444,
          "lon": 142.2283
        },
        {
          "name": "ホワイトワールド尾瀬岩鞍 (Oze Iwakura)",
          "snow": 0.4,
          "prefecture": "群馬県",
          "lat": 36.84,
          "lon": 139.22
        },
        {
          "name": "大鰐温泉スキー場 (Owani Onsen)",
          "snow": 0.3,
          "prefecture": "青森県",
          "lat": 40.505,
          "lon": 140.556
        },
        {
          "name": "キロロスノーワールド (Kiroro)",
          "snow": 0.2,
          "prefecture": "北海道",
          "lat": 43.0722,
          "lon": 140.9781
        },
        {
          "name": "八幡平リゾート (Hachimantai)",
          "snow": 0.1,
          "prefecture": "岩手県",
          "lat": 39.9075,
          "lon": 141.0264
        },
        {
          "name": "安比高原スキー場 (Appi Kogen)",
          "snow": 0,
          "prefecture": "岩手県",
          "lat": 40.0019,
          "lon": 140.9749
        },
        {
          "name": "みやぎ蔵王えぼし (Eboshi)",
          "snow": 0,
          "prefecture": "宮城県",
          "lat": 38.1257,
          "lon": 140.5422
        },
        {
          "name": "スプリングバレー仙台泉 (Spring Valley)",
          "snow": 0,
          "prefecture": "宮城県",
          "lat": 38.423,
          "lon": 140.7226
        },
        {
          "name": "オニコウベスキー場 (Onikoube)",
          "snow": 0,
          "prefecture": "宮城県",
          "lat": 38.802,
          "lon": 140.645
        },
        {
          "name": "マウンテンフィールド宮城蔵王すみかわ (Sumikawa)",
          "snow": 0,
          "prefecture": "宮城県",
          "lat": 38.125,
          "lon": 140.482
        },
        {
          "name": "たざわ湖スキー場 (Tazawako)",
          "snow": 0,
          "prefecture": "秋田県",
          "lat": 39.757,
          "lon": 140.758
        },
        {
          "name": "ジュネス栗駒 (Jeunesse)",
          "snow": 0,
          "prefecture": "秋田県",
          "lat": 39.1822,
          "lon": 140.6713
        },
        {
          "name": "太平山スキー場オーパス (Opas)",
          "snow": 0,
          "prefecture": "秋田県",
          "lat": 39.78,
          "lon": 140.18
        },
        {
          "name": "蔵王温泉スキー場 (Zao Onsen)",
          "snow": 0,
          "prefecture": "山形県",
          "lat": 38.1636,
          "lon": 140.4042
        },
        {
          "name": "天元台高原 (Tengendai)",
          "snow": 0,
          "prefecture": "山形県",
          "lat": 37.7983,
          "lon": 140.1197
        },
        {
          "name": "ジャングルジャングル (Jungle Jungle)",
          "snow": 0,
          "prefecture": "山形県",
          "lat": 38.455,
          "lon": 140.455
        },
        {
          "name": "月山スキー場 (Gassan)",
          "snow": 0,
          "prefecture": "山形県",
          "lat": 38.51892,
          "lon": 140.00662
        },
        {
          "name": "星野リゾート ネコマ マウンテン (Nekoma)",
          "snow": 0,
          "prefecture": "福島県",
          "lat": 37.6042,
          "lon": 140.0381
        },
        {
          "name": "グランデコスノーリゾート (Grandeco)",
          "snow": 0,
          "prefecture": "福島県",
          "lat": 37.6853,
          "lon": 140.0933
        },
        {
          "name": "猪苗代スキー場 (Inawashiro)",
          "snow": 0,
          "prefecture": "福島県",
          "lat": 37.575,
          "lon": 140.063
        },
        {
          "name": "箕輪スキー場 (Minowa)",
          "snow": 0,
          "prefecture": "福島県",
          "lat": 37.64,
          "lon": 140.23
        },
        {
          "name": "沼尻スキー場 (Numajiri)",
          "snow": 0,
          "prefecture": "福島県",
          "lat": 37.625,
          "lon": 140.245
        },
        {
          "name": "会津高原だいくらスキー場 (Daikura)",
          "snow": 0,
          "prefecture": "福島県",
          "lat": 37.155,
          "lon": 139.705
        },
        {
          "name": "ハンターマウンテン塩原 (Hunter Mt)",
          "snow": 0,
          "prefecture": "栃木県",
          "lat": 36.9377,
          "lon": 139.7744
        },
        {
          "name": "マウントジーンズ那須 (Mt.JEANS)",
          "snow": 0,
          "prefecture": "栃木県",
          "lat": 37.1264,
          "lon": 139.988
        },
        {
          "name": "エーデルワイススキーリゾート (Edelweiss)",
          "snow": 0,
          "prefecture": "栃木県",
          "lat": 36.932,
          "lon": 139.755
        },
        {
          "name": "日光湯元温泉スキー場 (Nikko Yumoto)",
          "snow": 0,
          "prefecture": "栃木県",
          "lat": 36.805,
          "lon": 139.42
        },
        {
          "name": "丸沼高原スキー場 (Marunuma)",
          "snow": 0,
          "prefecture": "群馬県",
          "lat": 36.8183,
          "lon": 139.3364
        },
        {
          "name": "川場スキー場 (Kawaba)",
          "snow": 0,
          "prefecture": "群馬県",
          "lat": 36.8122,
          "lon": 139.1083
        },
        {
          "name": "たんばらスキーパーク (Tambara)",
          "snow": 0,
          "prefecture": "群馬県",
          "lat": 36.7867,
          "lon": 139.0667
        },
        {
          "name": "万座温泉スキー場 (Manza Onsen)",
          "snow": 0,
          "prefecture": "群馬県",
          "lat": 36.6341,
          "lon": 138.5133
        },
        {
          "name": "ノルン水上スキー場 (Norn Minakami)",
          "snow": 0,
          "prefecture": "群馬県",
          "lat": 36.8042,
          "lon": 138.9722
        },
        {
          "name": "かたしな高原スキー場 (Katashina)",
          "snow": 0,
          "prefecture": "群馬県",
          "lat": 36.83,
          "lon": 139.23
        },
        {
          "name": "群馬みなかみほうだいぎスキー場 (Houdaigi)",
          "snow": 0,
          "prefecture": "群馬県",
          "lat": 36.852,
          "lon": 139.055
        },
        {
          "name": "奥利根スノーパーク (Okutone)",
          "snow": 0,
          "prefecture": "群馬県",
          "lat": 36.805,
          "lon": 139.005
        },
        {
          "name": "苗場スキー場 (Naeba)",
          "snow": 0,
          "prefecture": "新潟県",
          "lat": 36.7933,
          "lon": 138.7844
        },
        {
          "name": "かぐらスキー場 (Kagura)",
          "snow": 0,
          "prefecture": "新潟県",
          "lat": 36.8375,
          "lon": 138.7778
        },
        {
          "name": "GALA湯沢 (GALA Yuzawa)",
          "snow": 0,
          "prefecture": "新潟県",
          "lat": 36.9405,
          "lon": 138.7944
        },
        {
          "name": "石打丸山スキー場 (Ishiuchi)",
          "snow": 0,
          "prefecture": "新潟県",
          "lat": 36.9892,
          "lon": 138.8028
        },
        {
          "name": "ロッテアライリゾート (Lotte Arai)",
          "snow": 0,
          "prefecture": "新潟県",
          "lat": 36.99064,
          "lon": 138.18138
        },
        {
          "name": "舞子スノーリゾート (Maiko)",
          "snow": 0,
          "prefecture": "新潟県",
          "lat": 36.953,
          "lon": 138.835
        },
        {
          "name": "湯沢高原スキー場 (Yuzawa Kogen)",
          "snow": 0,
          "prefecture": "新潟県",
          "lat": 36.945,
          "lon": 138.805
        },
        {
          "name": "神立スノーリゾート (Kandatsu)",
          "snow": 0,
          "prefecture": "新潟県",
          "lat": 36.92,
          "lon": 138.835
        },
        {
          "name": "ムイカスノーリゾート (Muika)",
          "snow": 0,
          "prefecture": "新潟県",
          "lat": 37.055,
          "lon": 138.955
        },
        {
          "name": "シャルマン火打スキー場 (Charmant)",
          "snow": 0,
          "prefecture": "新潟県",
          "lat": 36.985,
          "lon": 138.055
        },
        {
          "name": "赤倉観光リゾート (Akakura)",
          "snow": 0,
          "prefecture": "新潟県",
          "lat": 36.885,
          "lon": 138.165
        },
        {
          "name": "上越国際スキー場 (Joetsu Kokusai)",
          "snow": 0,
          "prefecture": "新潟県",
          "lat": 37.015,
          "lon": 138.85
        },
        {
          "name": "白馬八方尾根スキー場 (Hakuba Happo)",
          "snow": 0,
          "prefecture": "長野県",
          "lat": 36.7018,
          "lon": 137.8327
        },
        {
          "name": "栂池高原スキー場 (Tsugaike)",
          "snow": 0,
          "prefecture": "長野県",
          "lat": 36.7536,
          "lon": 137.8767
        },
        {
          "name": "野沢温泉スキー場 (Nozawa Onsen)",
          "snow": 0,
          "prefecture": "長野県",
          "lat": 36.9197,
          "lon": 138.4485
        },
        {
          "name": "志賀高原 焼額山 (Shiga Kogen)",
          "snow": 0,
          "prefecture": "長野県",
          "lat": 36.7621,
          "lon": 138.5367
        },
        {
          "name": "菅平高原スノーリゾート (Sugadaira)",
          "snow": 0,
          "prefecture": "長野県",
          "lat": 36.5414,
          "lon": 138.3581
        },
        {
          "name": "軽井沢プリンスホテルスキー場 (Karuizawa)",
          "snow": 0,
          "prefecture": "長野県",
          "lat": 36.3353,
          "lon": 138.6339
        },
        {
          "name": "白馬岩岳スノーフィールド (Iwatake)",
          "snow": 0,
          "prefecture": "長野県",
          "lat": 36.715,
          "lon": 137.865
        },
        {
          "name": "Hakuba47",
          "snow": 0,
          "prefecture": "長野県",
          "lat": 36.685,
          "lon": 137.835
        },
        {
          "name": "竜王スキーパーク (Ryuoo)",
          "snow": 0,
          "prefecture": "長野県",
          "lat": 36.805,
          "lon": 138.455
        },
        {
          "name": "奥志賀高原スキー場 (Okushiga)",
          "snow": 0,
          "prefecture": "長野県",
          "lat": 36.78,
          "lon": 138.54
        },
        {
          "name": "ふじてんスノーリゾート (Fujiten)",
          "snow": 0,
          "prefecture": "山梨県",
          "lat": 35.4328,
          "lon": 138.6947
        },
        {
          "name": "カムイみさかスキー場 (Misaka)",
          "snow": 0,
          "prefecture": "山梨県",
          "lat": 35.585,
          "lon": 138.655
        },
        {
          "name": "ひるがの高原スキー場 (Hirugano)",
          "snow": 0,
          "prefecture": "岐阜県",
          "lat": 35.985,
          "lon": 136.905
        },
        {
          "name": "スキージャム勝山 (Ski Jam Katsuyama)",
          "snow": 0,
          "prefecture": "福井県",
          "lat": 36.0733,
          "lon": 136.5556
        },
        {
          "name": "福井和泉スキー場 (Fukui Izumi)",
          "snow": 0,
          "prefecture": "福井県",
          "lat": 35.9397,
          "lon": 136.69208
        },
        {
          "name": "今庄365スキー場 (Imajo)",
          "snow": 0,
          "prefecture": "福井県",
          "lat": 35.755,
          "lon": 136.155
        },
        {
          "name": "白山セイモアスキー場 (Hakusan Seymour)",
          "snow": 0,
          "prefecture": "石川県",
          "lat": 36.3472,
          "lon": 136.6789
        },
        {
          "name": "白山一里野温泉スキー場 (Ichirino)",
          "snow": 0,
          "prefecture": "石川県",
          "lat": 36.2683,
          "lon": 136.715
        },
        {
          "name": "金沢市営医王山スキー場 (Iozen)",
          "snow": 0,
          "prefecture": "石川県",
          "lat": 36.48,
          "lon": 136.7
        },
        {
          "name": "立山山麓スキー場 (Tateyama Sanroku)",
          "snow": 0,
          "prefecture": "富山県",
          "lat": 36.5747,
          "lon": 137.417
        },
        {
          "name": "IOX-AROSA (イオックスアローザ)",
          "snow": 0,
          "prefecture": "富山県",
          "lat": 36.5149,
          "lon": 136.8209
        },
        {
          "name": "牛岳温泉スキー場 (Ushidake Onsen)",
          "snow": 0,
          "prefecture": "富山県",
          "lat": 36.5737,
          "lon": 137.057
        },
        {
          "name": "たいらスキー場 (Taira)",
          "snow": 0,
          "prefecture": "富山県",
          "lat": 36.45,
          "lon": 136.95
        },
        {
          "name": "びわ湖バレイ (Biwako Valley)",
          "snow": 0,
          "prefecture": "滋賀県",
          "lat": 35.203,
          "lon": 135.907
        },
        {
          "name": "グランスノー奥伊吹 (Okuibuki)",
          "snow": 0,
          "prefecture": "滋賀県",
          "lat": 35.522,
          "lon": 136.3872
        },
        {
          "name": "箱館山スキー場 (Hakodateyama)",
          "snow": 0,
          "prefecture": "滋賀県",
          "lat": 35.455,
          "lon": 136.035
        },
        {
          "name": "ハチ北高原スキー場 (Hachi Kita)",
          "snow": 0,
          "prefecture": "兵庫県",
          "lat": 35.4045,
          "lon": 134.558
        },
        {
          "name": "スカイバレースキー場 (Sky Valley)",
          "snow": 0,
          "prefecture": "兵庫県",
          "lat": 35.4489,
          "lon": 134.5458
        },
        {
          "name": "おじろスキー場 (Ojiro)",
          "snow": 0,
          "prefecture": "兵庫県",
          "lat": 35.425,
          "lon": 134.585
        },
        {
          "name": "ちくさ高原スキー場 (Chikusa)",
          "snow": 0,
          "prefecture": "兵庫県",
          "lat": 35.185,
          "lon": 134.455
        },
        {
          "name": "峰山高原リゾート (Mineyama)",
          "snow": 0,
          "prefecture": "兵庫県",
          "lat": 35.155,
          "lon": 134.705
        },
        {
          "name": "氷ノ山国際スキー場 (Hyonosen)",
          "snow": 0,
          "prefecture": "兵庫県",
          "lat": 35.355,
          "lon": 134.525
        },
        {
          "name": "恐羅漢スノーパーク (Osorakan)",
          "snow": 0,
          "prefecture": "広島県",
          "lat": 34.5957,
          "lon": 132.1466
        },
        {
          "name": "めがひらスキー場 (Megahira)",
          "snow": 0,
          "prefecture": "広島県",
          "lat": 34.4533,
          "lon": 132.1158
        },
        {
          "name": "芸北高原大佐スキー場 (Osa)",
          "snow": 0,
          "prefecture": "広島県",
          "lat": 34.7479,
          "lon": 132.2203
        },
        {
          "name": "ユートピアサイオト (Saioto)",
          "snow": 0,
          "prefecture": "広島県",
          "lat": 34.725,
          "lon": 132.355
        },
        {
          "name": "やわたハイランド191 (Yawata)",
          "snow": 0,
          "prefecture": "広島県",
          "lat": 34.6946,
          "lon": 132.16
        }
      ]
    },
    {
      "date": "2026-01-17",
      "display_date": "1/17 (土)",
      "rankings": [
        {
          "name": "舞子スノーリゾート (Maiko)",
          "snow": 13.4,
          "prefecture": "新潟県",
          "lat": 36.953,
          "lon": 138.835
        },