{
  "updated_at": "2026-01-26T18:36:18.882Z",
  "dates": [
    {
      "date": "2026-01-27",
      "display_date": "1/27 (火)",
      "rankings": [
        {
          "name": "たざわ湖スキー場 (Tazawako)",
          "snow": 1,
          "prefecture": "秋田県",
          "lat": 39.757,
          "lon": 140.758
        },
        {
          "name": "ニセコモイワスキー場 (Niseko Moiwa)",
          "snow": 0.9,
          "prefecture": "北海道",
          "lat": 42.855,
          "lon": 140.638
        },
        {
          "name": "阿仁スキー場 (Ani)",
          "snow": 0.7,
          "prefecture": "秋田県",
          "lat": 39.953,
          "lon": 140.354
        },
        {
          "name": "八甲田スキー場 (Hakkoda)",
          "snow": 0.6,
          "prefecture": "青森県",
          "lat": 40.6868,
          "lon": 140.8654
        },
        {
          "name": "月山スキー場 (Gassan)",
          "snow": 0.6,
          "prefecture": "山形県",
          "lat": 38.51892,
          "lon": 140.00662
        },
        {
          "name": "雫石スキー場 (Shizukuishi)",
          "snow": 0.5,
          "prefecture": "岩手県",
          "lat": 39.718,
          "lon": 140.9575
        },
        {
          "name": "岩手高原スノーパーク (Iwate Kogen)",
          "snow": 0.5,
          "prefecture": "岩手県",
          "lat": 39.715,
          "lon": 140.98
        },
        {
          "name": "カムイスキーリンクス (Kamui)",
          "snow": 0.4,
          "prefecture": "北海道",
          "lat": 43.6444,
          "lon": 142.2283
        },
        {
          "name": "蔵王温泉スキー場 (Zao Onsen)",
          "snow": 0.4,
          "prefecture": "山形県",
          "lat": 38.1636,
          "lon": 140.4042
        },
        {
          "name": "ニセコユナイテッド (Niseko United)",
          "snow": 0.3,
          "prefecture": "北海道",
          "lat": 42.8631,
          "lon": 140.7042
        },
        {
          "name": "夏油高原スキー場 (Geto Kogen)",
          "snow": 0.3,
          "prefecture": "岩手県",
          "lat": 39.2311,
          "lon": 140.9419
        },
        {
          "name": "マウンテンフィールド宮城蔵王すみかわ (Sumikawa)",
          "snow": 0.3,
          "prefecture": "宮城県",
          "lat": 38.125,
          "lon": 140.482
        },
        {
          "name": "八幡平リゾート (Hachimantai)",
          "snow": 0.2,
          "prefecture": "岩手県",
          "lat": 39.9075,
          "lon": 141.0264
        },
        {
          "name": "ジュネス栗駒 (Jeunesse)",
          "snow": 0.2,
          "prefecture": "秋田県",
          "lat": 39.1822,
          "lon": 140.6713
        },
        {
          "name": "グランデコスノーリゾート (Grandeco)",
          "snow": 0.2,
          "prefecture": "福島県",
          "lat": 37.6853,
          "lon": 140.0933
        },
        {
          "name": "富良野スキー場 (Furano)",
          "snow": 0.1,
          "prefecture": "北海道",
          "lat": 43.3243,
          "lon": 142.3456
        },
        {
          "name": "キロロスノーワールド (Kiroro)",
          "snow": 0.1,
          "prefecture": "北海道",
          "lat": 43.0722,
          "lon": 140.9781
        },
        {
          "name": "サッポロテイネ (Sapporo Teine)",
          "snow": 0.1,
          "prefecture": "北海道",
          "lat": 43.0973,
          "lon": 141.2044
        },
        {
          "name": "青森スプリング (Aomori Spring)",
          "snow": 0.1,
          "prefecture": "青森県",
          "lat": 40.7303,
          "lon": 140.2479
        },
        {
          "name": "安比高原スキー場 (Appi Kogen)",
          "snow": 0.1,
          "prefecture": "岩手県",
          "lat": 40.0019,
          "lon": 140.9749
        },
        {
          "name": "みやぎ蔵王えぼし (Eboshi)",
          "snow": 0.1,
          "prefecture": "宮城県",
          "lat": 38.1257,
          "lon": 140.5422
        },
        {
          "name": "太平山スキー場オーパス (Opas)",
          "snow": 0.1,
          "prefecture": "秋田県",
          "lat": 39.78,
          "lon": 140.18
        },
        {
          "name": "星野リゾート ネコマ マウンテン (Nekoma)",
          "snow": 0.1,
          "prefecture": "福島県",
          "lat": 37.6042,
          "lon": 140.0381
        },
        {
          "name": "猪苗代スキー場 (Inawashiro)",
          "snow": 0.1,
          "prefecture": "福島県",
          "lat": 37.575,
          "lon": 140.063
        },
        {
          "name": "ルスツリゾート (Rusutsu)",
          "snow": 0,
          "prefecture": "北海道",
          "lat": 42.7533,
          "lon": 140.9029
        },
        {
          "name": "札幌国際スキー場 (Sapporo Kokusai)",
          "snow": 0,
          "prefecture": "北海道",
          "lat": 43.0724,
          "lon": 141.0827
        },
        {
          "name": "トマムスキー場 (Tomamu)",
          "snow": 0,
          "prefecture": "北海道",
          "lat": 43.0628,
          "lon": 142.6322
        },
        {
          "name": "サホロリゾート (Sahoro)",
          "snow": 0,
          "prefecture": "北海道",
          "lat": 43.1749,
          "lon": 142.8076
        },
        {
          "name": "大雪山旭岳ロープウェイ (Asahidake)",
          "snow": 0,
          "prefecture": "北海道",
          "lat": 43.6542,
          "lon": 142.7964
        },
        {
          "name": "モヤヒルズ (Moya Hills)",
          "snow": 0,
          "prefecture": "青森県",
          "lat": 40.7275,
          "lon": 140.8033
        },
        {
          "name": "大鰐温泉スキー場 (Owani Onsen)",
          "snow": 0,
          "prefecture": "青森県",
          "lat": 40.505,
          "lon": 140.556
        },
        {
          "name": "スプリングバレー仙台泉 (Spring Valley)",
          "snow": 0,
          "prefecture": "宮城県",
          "lat": 38.423,
          "lon": 140.7226
        },
        {
          "name": "オニコウベスキー場 (Onikoube)",
          "snow": 0,
          "prefecture": "宮城県",
          "lat": 38.802,
          "lon": 140.645
        },
        {
          "name": "天元台高原 (Tengendai)",
          "snow": 0,
          "prefecture": "山形県",
          "lat": 37.7983,
          "lon": 140.1197
        },
        {
          "name": "ジャングルジャングル (Jungle Jungle)",
          "snow": 0,
          "prefecture": "山形県",
          "lat": 38.455,
          "lon": 140.455
        },
        {
          "name": "箕輪スキー場 (Minowa)",
          "snow": 0,
          "prefecture": "福島県",
          "lat": 37.64,
          "lon": 140.23
        },
        {
          "name": "沼尻スキー場 (Numajiri)",
          "snow": 0,
          "prefecture": "福島県",
          "lat": 37.625,
          "lon": 140.245
        },
        {
          "name": "会津高原だいくらスキー場 (Daikura)",
          "snow": 0,
          "prefecture": "福島県",
          "lat": 37.155,
          "lon": 139.705
        },
        {
          "name": "ハンターマウンテン塩原 (Hunter Mt)",
          "snow": 0,
          "prefecture": "栃木県",
          "lat": 36.9377,
          "lon": 139.7744
        },
        {
          "name": "マウントジーンズ那須 (Mt.JEANS)",
          "snow": 0,
          "prefecture": "栃木県",
          "lat": 37.1264,
          "lon": 139.988
        },
        {
          "name": "エーデルワイススキーリゾート (Edelweiss)",
          "snow": 0,
          "prefecture": "栃木県",
          "lat": 36.932,
          "lon": 139.755
        },
        {
          "name": "日光湯元温泉スキー場 (Nikko Yumoto)",
          "snow": 0,
          "prefecture": "栃木県",
          "lat": 36.805,
          "lon": 139.42
        },
        {
          "name": "丸沼高原スキー場 (Marunuma)",
          "snow": 0,
          "prefecture": "群馬県",
          "lat": 36.8183,
          "lon": 139.3364
        },
        {
          "name": "川場スキー場 (Kawaba)",
          "snow": 0,
          "prefecture": "群馬県",
          "lat": 36.8122,
          "lon": 139.1083
        },
        {
          "name": "たんばらスキーパーク (Tambara)",
          "snow": 0,
          "prefecture": "群馬県",
          "lat": 36.7867,
          "lon": 139.0667
        },
        {
          "name": "万座温泉スキー場 (Manza Onsen)",
          "snow": 0,
          "prefecture": "群馬県",
          "lat": 36.6341,
          "lon": 138.5133
        },
        {
          "name": "ノルン水上スキー場 (Norn Minakami)",
          "snow": 0,
          "prefecture": "群馬県",
          "lat": 36.8042,
          "lon": 138.9722
        },
        {
          "name": "ホワイトワールド尾瀬岩鞍 (Oze Iwakura)",
          "snow": 0,
          "prefecture": "群馬県",
          "lat": 36.84,
          "lon": 139.22
        },
        {
          "name": "かたしな高原スキー場 (Katashina)",
          "snow": 0,
          "prefecture": "群馬県",
          "lat": 36.83,
          "lon": 139.23
        },
        {
          "name": "群馬みなかみほうだいぎスキー場 (Houdaigi)",
          "snow": 0,
          "prefecture": "群馬県",
          "lat": 36.852,
          "lon": 139.055
        },
        {
          "name": "金沢市営医王山スキー場 (Iozen)",
          "snow": 0,
          "prefecture": "石川県",
          "lat": 36.48,
          "lon": 136.7
        },
        {
          "name": "立山山麓スキー場 (Tateyama Sanroku)",
          "snow": 0,
          "prefecture": "富山県",
          "lat": 36.5747,
          "lon": 137.417
        },
        {
          "name": "IOX-AROSA (イオックスアローザ)",
          "snow": 0,
          "prefecture": "富山県",
          "lat": 36.5149,
          "lon": 136.8209
        },
        {
          "name": "牛岳温泉スキー場 (Ushidake Onsen)",
          "snow": 0,
          "prefecture": "富山県",
          "lat": 36.5737,
          "lon": 137.057
        },
        {
          "name": "たいらスキー場 (Taira)",
          "snow": 0,
          "prefecture": "富山県",
          "lat": 36.45,
          "lon": 136.95
        },
        {
          "name": "びわ湖バレイ (Biwako Valley)",
          "snow": 0,
          "prefecture": "滋賀県",
          "lat": 35.203,
          "lon": 135.907
        },
        {
          "name": "グランスノー奥伊吹 (Okuibuki)",
          "snow": 0,
          "prefecture": "滋賀県",
          "lat": 35.522,
          "lon": 136.3872
        },
        {
          "name": "箱館山スキー場 (Hakodateyama)",
          "snow": 0,
          "prefecture": "滋賀県",
          "lat": 35.455,
          "lon": 136.035
        },
        {
          "name": "ハチ北高原スキー場 (Hachi Kita)",
          "snow": 0,
          "prefecture": "兵庫県",
          "lat": 35.4045,
          "lon": 134.558
        },
        {
          "name": "スカイバレースキー場 (Sky Valley)",
          "snow": 0,
          "prefecture": "兵庫県",
          "lat": 35.4489,
          "lon": 134.5458
        },
        {
          "name": "おじろスキー場 (Ojiro)",
          "snow": 0,
          "prefecture": "兵庫県",
          "lat": 35.425,
          "lon": 134.585
        },
        {
          "name": "ちくさ高原スキー場 (Chikusa)",
          "snow": 0,
          "prefecture": "兵庫県",
          "lat": 35.185,
          "lon": 134.455
        },
        {
          "name": "峰山高原リゾート (Mineyama)",
          "snow": 0,
          "prefecture": "兵庫県",
          "lat": 35.155,
          "lon": 134.705
        },
        {
          "name": "氷ノ山国際スキー場 (Hyonosen)",
          "snow": 0,
          "prefecture": "兵庫県",
          "lat": 35.355,
          "lon": 134.525
        },
        {
          "name": "恐羅漢スノーパーク (Osorakan)",
          "snow": 0,
          "prefecture": "広島県",
          "lat": 34.5957,
          "lon": 132.1466
        },
        {
          "name": "めがひらスキー場 (Megahira)",
          "snow": 0,
          "prefecture": "広島県",
          "lat": 34.4533,
          "lon": 132.1158
        },
        {
          "name": "芸北高原大佐スキー場 (Osa)",
          "snow": 0,
          "prefecture": "広島県",
          "lat": 34.7479,
          "lon": 132.2203
        },
        {
          "name": "ユートピアサイオト (Saioto)",
          "snow": 0,
          "prefecture": "広島県",
          "lat": 34.725,
          "lon": 132.355
        },
        {
          "name": "やわたハイランド191 (Yawata)",
          "snow": 0,
          "prefecture": "広島県",
          "lat": 34.6946,
          "lon": 132.16
        }
      ]
    },
    {
      "date": "2026-01-28",
      "display_date": "1/28 (水)",
      "rankings": [
        {
          "name": "月山スキー場 (Gassan)",
          "snow": 13.2,
          "prefecture": "山形県",
          "lat": 38.51892,
          "lon": 140.00662
        },
        {
          "name": "八甲田スキー場 (Hakkoda)",
          "snow": 12,
          "prefecture": "青森県",
          "lat": 40.6868,
          "lon": 140.8654
        },
        {
          "name": "青森スプリング (Aomori Spring)",
          "snow": 9.4,
          "prefecture": "青森県",
          "lat": 40.7303,
          "lon": 140.2479
        },
        {
          "name": "大鰐温泉スキー場 (Owani Onsen)",
          "snow": 8.8,
          "prefecture": "青森県",
          "lat": 40.505,
          "lon": 140.556
        },
        {
          "name": "立山山麓スキー場 (Tateyama Sanroku)",
          "snow": 8.8,
          "prefecture": "富山県",
          "lat": 36.5747,
          "lon": 137.417
        },
        {
          "name": "モヤヒルズ (Moya Hills)",
          "snow": 8.7,
          "prefecture": "青森県",
          "lat": 40.7275,
          "lon": 140.8033
        },
        {
          "name": "たいらスキー場 (Taira)",
          "snow": 8.5,
          "prefecture": "富山県",
          "lat": 36.45,
          "lon": 136.95
        },
        {
          "name": "ジュネス栗駒 (Jeunesse)",
          "snow": 5.9,
          "prefecture": "秋田県",
          "lat": 39.1822,
          "lon": 140.6713
        },
        {
          "name": "IOX-AROSA (イオックスアローザ)",
          "snow": 5.8,
          "prefecture": "富山県",
          "lat": 36.5149,
          "lon": 136.8209
        },
        {
          "name": "阿仁スキー場 (Ani)",
          "snow": 5.7,
          "prefecture": "秋田県",
          "lat": 39.953,
          "lon": 140.354
        },
        {
          "name": "牛岳温泉スキー場 (Ushidake Onsen)",
          "snow": 5.6,
          "prefecture": "富山県",
          "lat": 36.5737,
          "lon": 137.057
        },
        {
          "name": "天元台高原 (Tengendai)",
          "snow": 5,
          "prefecture": "山形県",
          "lat": 37.7983,
          "lon": 140.1197
        },
        {
          "name": "ジャングルジャングル (Jungle Jungle)",
          "snow": 4.4,
          "prefecture": "山形県",
          "lat": 38.455,
          "lon": 140.455
        },
        {
          "name": "会津高原だいくらスキー場 (Daikura)",
          "snow": 4.3,
          "prefecture": "福島県",
          "lat": 37.155,
          "lon": 139.705
        },
        {
          "name": "群馬みなかみほうだいぎスキー場 (Houdaigi)",
          "snow": 4.3,
          "prefecture": "群馬県",
          "lat": 36.852,
          "lon": 139.055
        },
        {
          "name": "スカイバレースキー場 (Sky Valley)",
          "snow": 4.3,
          "prefecture": "兵庫県",
          "lat": 35.4489,
          "lon": 134.5458
        },
        {
          "name": "おじろスキー場 (Ojiro)",
          "snow": 4.3,
          "prefecture": "兵庫県",
          "lat": 35.425,
          "lon": 134.585
        },
        {
          "name": "夏油高原スキー場 (Geto Kogen)",
          "snow": 3.9,
          "prefecture": "岩手県",
          "lat": 39.2311,
          "lon": 140.9419
        },
        {
          "name": "マウンテンフィールド宮城蔵王すみかわ (Sumikawa)",
          "snow": 3.6,
          "prefecture": "宮城県",
          "lat": 38.125,
          "lon": 140.482
        },
        {
          "name": "ニセコモイワスキー場 (Niseko Moiwa)",
          "snow": 3.5,
          "prefecture": "北海道",
          "lat": 42.855,
          "lon": 140.638
        },
        {
          "name": "ノルン水上スキー場 (Norn Minakami)",
          "snow": 3.5,
          "prefecture": "群馬県",
          "lat": 36.8042,
          "lon": 138.9722
        },
        {
          "name": "川場スキー場 (Kawaba)",
          "snow": 3.3,
          "prefecture": "群馬県",
          "lat": 36.8122,
          "lon": 139.1083
        },
        {
          "name": "ハチ北高原スキー場 (Hachi Kita)",
          "snow": 3.3,
          "prefecture": "兵庫県",
          "lat": 35.4045,
          "lon": 134.558
        },
        {
          "name": "たんばらスキーパーク (Tambara)",
          "snow": 3.2,
          "prefecture": "群馬県",
          "lat": 36.7867,
          "lon": 139.0667
        },
        {
          "name": "太平山スキー場オーパス (Opas)",
          "snow": 3.1,
          "prefecture": "秋田県",
          "lat": 39.78,
          "lon": 140.18
        },
        {
          "name": "蔵王温泉スキー場 (Zao Onsen)",
          "snow": 2.9,
          "prefecture": "山形県",
          "lat": 38.1636,
          "lon": 140.4042
        },
        {
          "name": "マウントジーンズ那須 (Mt.JEANS)",
          "snow": 2.7,
          "prefecture": "栃木県",
          "lat": 37.1264,
          "lon": 139.988
        },
        {
          "name": "ニセコユナイテッド (Niseko United)",
          "snow": 2.6,
          "prefecture": "北海道",
          "lat": 42.8631,
          "lon": 140.7042
        },
        {
          "name": "富良野スキー場 (Furano)",
          "snow": 2.5,
          "prefecture": "北海道",
          "lat": 43.3243,
          "lon": 142.3456
        },
        {
          "name": "星野リゾート ネコマ マウンテン (Nekoma)",
          "snow": 2.4,
          "prefecture": "福島県",
          "lat": 37.6042,
          "lon": 140.0381
        },
        {
          "name": "猪苗代スキー場 (Inawashiro)",
          "snow": 2.4,
          "prefecture": "福島県",
          "lat": 37.575,
          "lon": 140.063
        },
        {
          "name": "万座温泉スキー場 (Manza Onsen)",
          "snow": 2.4,
          "prefecture": "群馬県",
          "lat": 36.6341,
          "lon": 138.5133
        },
        {
          "name": "オニコウベスキー場 (Onikoube)",
          "snow": 2.2,
          "prefecture": "宮城県",
          "lat": 38.802,
          "lon": 140.645
        },
        {
          "name": "氷ノ山国際スキー場 (Hyonosen)",
          "snow": 2.2,
          "prefecture": "兵庫県",
          "lat": 35.355,
          "lon": 134.525
        },
        {
          "name": "安比高原スキー場 (Appi Kogen)",
          "snow": 2.1,
          "prefecture": "岩手県",
          "lat": 40.0019,
          "lon": 140.9749
        },
        {
          "name": "たざわ湖スキー場 (Tazawako)",
          "snow": 2.1,
          "prefecture": "秋田県",
          "lat": 39.757,
          "lon": 140.758
        },
        {
          "name": "グランデコスノーリゾート (Grandeco)",
          "snow": 2,
          "prefecture": "福島県",
          "lat": 37.6853,
          "lon": 140.0933
        },
        {
          "name": "ルスツリゾート (Rusutsu)",
          "snow": 1.8,
          "prefecture": "北海道",
          "lat": 42.7533,
          "lon": 140.9029
        },
        {
          "name": "箕輪スキー場 (Minowa)",
          "snow": 1.8,
          "prefecture": "福島県",
          "lat": 37.64,
          "lon": 140.23
        },
        {
          "name": "沼尻スキー場 (Numajiri)",
          "snow": 1.8,
          "prefecture": "福島県",
          "lat": 37.625,
          "lon": 140.245
        },
        {
          "name": "ホワイトワールド尾瀬岩鞍 (Oze Iwakura)",
          "snow": 1.8,
          "prefecture": "群馬県",
          "lat": 36.84,
          "lon": 139.22
        },
        {
          "name": "かたしな高原スキー場 (Katashina)",
          "snow": 1.8,
          "prefecture": "群馬県",
          "lat": 36.83,
          "lon": 139.23
        },
        {
          "name": "サッポロテイネ (Sapporo Teine)",
          "snow": 1.6,
          "prefecture": "北海道",
          "lat": 43.0973,
          "lon": 141.2044
        },
        {
          "name": "みやぎ蔵王えぼし (Eboshi)",
          "snow": 1.5,
          "prefecture": "宮城県",
          "lat": 38.1257,
          "lon": 140.5422
        },
        {
          "name": "スプリングバレー仙台泉 (Spring Valley)",
          "snow": 1.3,
          "prefecture": "宮城県",
          "lat": 38.423,
          "lon": 140.7226
        },
        {
          "name": "カムイスキーリンクス (Kamui)",
          "snow": 1.2,
          "prefecture": "北海道",
          "lat": 43.6444,
          "lon": 142.2283
        },
        {
          "name": "トマムスキー場 (Tomamu)",
          "snow": 1.1,
          "prefecture": "北海道",
          "lat": 43.0628,
          "lon": 142.6322
        },
        {
          "name": "サホロリゾート (Sahoro)",
          "snow": 1.1,
          "prefecture": "北海道",
          "lat": 43.1749,
          "lon": 142.8076
        },
        {
          "name": "ハンターマウンテン塩原 (Hunter Mt)",
          "snow": 0.9,
          "prefecture": "栃木県",
          "lat": 36.9377,
          "lon": 139.7744
        },
        {
          "name": "エーデルワイススキーリゾート (Edelweiss)",
          "snow": 0.9,
          "prefecture": "栃木県",
          "lat": 36.932,
          "lon": 139.755
        },
        {
          "name": "丸沼高原スキー場 (Marunuma)",
          "snow": 0.9,
          "prefecture": "群馬県",
          "lat": 36.8183,
          "lon": 139.3364
        },
        {
          "name": "札幌国際スキー場 (Sapporo Kokusai)",
          "snow": 0.8,
          "prefecture": "北海道",
          "lat": 43.0724,
          "lon": 141.0827
        },
        {
          "name": "大雪山旭岳ロープウェイ (Asahidake)",
          "snow": 0.8,
          "prefecture": "北海道",
          "lat": 43.6542,
          "lon": 142.7964
        },
        {
          "name": "雫石スキー場 (Shizukuishi)",
          "snow": 0.7,
          "prefecture": "岩手県",
          "lat": 39.718,
          "lon": 140.9575
        },
        {
          "name": "キロロスノーワールド (Kiroro)",
          "snow": 0.5,
          "prefecture": "北海道",
          "lat": 43.0722,
          "lon": 140.9781
        },
        {
          "name": "八幡平リゾート (Hachimantai)",
          "snow": 0.4,
          "prefecture": "岩手県",
          "lat": 39.9075,
          "lon": 141.0264
        },
        {
          "name": "ちくさ高原スキー場 (Chikusa)",
          "snow": 0.3,
          "prefecture": "兵庫県",
          "lat": 35.185,
          "lon": 134.455
        },
        {
          "name": "岩手高原スノーパーク (Iwate Kogen)",
          "snow": 0.2,
          "prefecture": "岩手県",
          "lat": 39.715,
          "lon": 140.98
        },
        {
          "name": "日光湯元温泉スキー場 (Nikko Yumoto)",
          "snow": 0.2,
          "prefecture": "栃木県",
          "lat": 36.805,
          "lon": 139.42
        },
        {
          "name": "グランスノー奥伊吹 (Okuibuki)",
          "snow": 0.1,
          "prefecture": "滋賀県",
          "lat": 35.522,
          "lon": 136.3872
        },
        {
          "name": "峰山高原リゾート (Mineyama)",
          "snow": 0.1,
          "prefecture": "兵庫県",
          "lat": 35.155,
          "lon": 134.705
        },
        {
          "name": "金沢市営医王山スキー場 (Iozen)",
          "snow": 0,
          "prefecture": "石川県",
          "lat": 36.48,
          "lon": 136.7
        },
        {
          "name": "びわ湖バレイ (Biwako Valley)",
          "snow": 0,
          "prefecture": "滋賀県",
          "lat": 35.203,
          "lon": 135.907
        },
        {
          "name": "箱館山スキー場 (Hakodateyama)",
          "snow": 0,
          "prefecture": "滋賀県",
          "lat": 35.455,
          "lon": 136.035
        },
        {
          "name": "恐羅漢スノーパーク (Osorakan)",
          "snow": 0,
          "prefecture": "広島県",
          "lat": 34.5957,
          "lon": 132.1466
        },
        {
          "name": "めがひらスキー場 (Megahira)",
          "snow": 0,
          "prefecture": "広島県",
          "lat": 34.4533,
          "lon": 132.1158
        },
        {
          "name": "芸北高原大佐スキー場 (Osa)",
          "snow": 0,
          "prefecture": "広島県",
          "lat": 34.7479,
          "lon": 132.2203
        },
        {
          "name": "ユートピアサイオト (Saioto)",
          "snow": 0,
          "prefecture": "広島県",
          "lat": 34.725,
          "lon": 132.355
        },
        {
          "name": "やわたハイランド191 (Yawata)",
          "snow": 0,
          "prefecture": "広島県",
          "lat": 34.6946,
          "lon": 132.16
        }
      ]
    },
    {
      "date": "2026-01-29",
      "display_date": "1/29 (木)",
      "rankings": [
        {
          "name": "月山スキー場 (Gassan)",
          "snow": 10.6,
          "prefecture": "山形県",
          "lat": 38.51892,
          "lon": 140.00662
        },
        {
          "name": "スカイバレースキー場 (Sky Valley)",
          "snow": 8.3,
          "prefecture": "兵庫県",
          "lat": 35.4489,
          "lon": 134.5458
        },
        {
          "name": "おじろスキー場 (Ojiro)",
          "snow": 8.3,
          "prefecture": "兵庫県",
          "lat": 35.425,
          "lon": 134.585
        },
        {
          "name": "青森スプリング (Aomori Spring)",
          "snow": 6.9,
          "prefecture": "青森県",
          "lat": 40.7303,
          "lon": 140.2479
        },
        {
          "name": "ハチ北高原スキー場 (Hachi Kita)",
          "snow": 6.4,
          "prefecture": "兵庫県",
          "lat": 35.4045,
          "lon": 134.558
        },
        {
          "name": "氷ノ山国際スキー場 (Hyonosen)",
          "snow": 6,
          "prefecture": "兵庫県",
          "lat": 35.355,
          "lon": 134.525
        },
        {
          "name": "たざわ湖スキー場 (Tazawako)",
          "snow": 4.6,
          "prefecture": "秋田県",
          "lat": 39.757,
          "lon": 140.758
        },
        {
          "name": "大鰐温泉スキー場 (Owani Onsen)",
          "snow": 3.5,
          "prefecture": "青森県",
          "lat": 40.505,
          "lon": 140.556
        },
        {
          "name": "太平山スキー場オーパス (Opas)",
          "snow": 2.8,
          "prefecture": "秋田県",
          "lat": 39.78,
          "lon": 140.18
        },
        {
          "name": "八甲田スキー場 (Hakkoda)",
          "snow": 2.7,
          "prefecture": "青森県",
          "lat": 40.6868,
          "lon": 140.8654
        },
        {
          "name": "ジュネス栗駒 (Jeunesse)",
          "snow": 2.7,
          "prefecture": "秋田県",
          "lat": 39.1822,
          "lon": 140.6713
        },
        {
          "name": "夏油高原スキー場 (Geto Kogen)",
          "snow": 2.2,
          "prefecture": "岩手県",
          "lat": 39.2311,
          "lon": 140.9419
        },
        {
          "name": "オニコウベスキー場 (Onikoube)",
          "snow": 2.2,
          "prefecture": "宮城県",
          "lat": 38.802,
          "lon": 140.645
        },
        {
          "name": "モヤヒルズ (Moya Hills)",
          "snow": 1.5,
          "prefecture": "青森県",
          "lat": 40.7275,
          "lon": 140.8033
        },
        {
          "name": "雫石スキー場 (Shizukuishi)",
          "snow": 1.4,
          "prefecture": "岩手県",
          "lat": 39.718,
          "lon": 140.9575
        },
        {
          "name": "ちくさ高原スキー場 (Chikusa)",
          "snow": 1.2,
          "prefecture": "兵庫県",
          "lat": 35.185,
          "lon": 134.455
        },
        {
          "name": "蔵王温泉スキー場 (Zao Onsen)",
          "snow": 1,
          "prefecture": "山形県",
          "lat": 38.1636,
          "lon": 140.4042
        },
        {
          "name": "牛岳温泉スキー場 (Ushidake Onsen)",
          "snow": 1,
          "prefecture": "富山県",
          "lat": 36.5737,
          "lon": 137.057
        },
        {
          "name": "万座温泉スキー場 (Manza Onsen)",
          "snow": 0.9,
          "prefecture": "群馬県",
          "lat": 36.6341,
          "lon": 138.5133
        },
        {
          "name": "マウンテンフィールド宮城蔵王すみかわ (Sumikawa)",
          "snow": 0.8,
          "prefecture": "宮城県",
          "lat": 38.125,
          "lon": 140.482
        },
        {
          "name": "ジャングルジャングル (Jungle Jungle)",
          "snow": 0.8,
          "prefecture": "山形県",
          "lat": 38.455,
          "lon": 140.455
        },
        {
          "name": "立山山麓スキー場 (Tateyama Sanroku)",
          "snow": 0.8,
          "prefecture": "富山県",
          "lat": 36.5747,
          "lon": 137.417
        },
        {
          "name": "IOX-AROSA (イオックスアローザ)",
          "snow": 0.8,
          "prefecture": "富山県",
          "lat": 36.5149,
          "lon": 136.8209
        },
        {
          "name": "たいらスキー場 (Taira)",
          "snow": 0.8,
          "prefecture": "富山県",
          "lat": 36.45,
          "lon": 136.95
        },
        {
          "name": "群馬みなかみほうだいぎスキー場 (Houdaigi)",
          "snow": 0.6,
          "prefecture": "群馬県",
          "lat": 36.852,
          "lon": 139.055
        },
        {
          "name": "岩手高原スノーパーク (Iwate Kogen)",
          "snow": 0.5,
          "prefecture": "岩手県",
          "lat": 39.715,
          "lon": 140.98
        },
        {
          "name": "カムイスキーリンクス (Kamui)",
          "snow": 0.4,
          "prefecture": "北海道",
          "lat": 43.6444,
          "lon": 142.2283
        },
        {
          "name": "ノルン水上スキー場 (Norn Minakami)",
          "snow": 0.4,
          "prefecture": "群馬県",
          "lat": 36.8042,
          "lon": 138.9722
        },
        {
          "name": "金沢市営医王山スキー場 (Iozen)",
          "snow": 0.4,
          "prefecture": "石川県",
          "lat": 36.48,
          "lon": 136.7
        },
        {
          "name": "富良野スキー場 (Furano)",
          "snow": 0.3,
          "prefecture": "北海道",
          "lat": 43.3243,
          "lon": 142.3456
        },
        {
          "name": "スプリングバレー仙台泉 (Spring Valley)",
          "snow": 0.3,
          "prefecture": "宮城県",
          "lat": 38.423,
          "lon": 140.7226
        },
        {
          "name": "天元台高原 (Tengendai)",
          "snow": 0.3,
          "prefecture": "山形県",
          "lat": 37.7983,
          "lon": 140.1197
        },
        {
          "name": "たんばらスキーパーク (Tambara)",
          "snow": 0.3,
          "prefecture": "群馬県",
          "lat": 36.7867,
          "lon": 139.0667
        },
        {
          "name": "グランスノー奥伊吹 (Okuibuki)",
          "snow": 0.3,
          "prefecture": "滋賀県",
          "lat": 35.522,
          "lon": 136.3872
        },
        {
          "name": "峰山高原リゾート (Mineyama)",
          "snow": 0.2,
          "prefecture": "兵庫県",
          "lat": 35.155,
          "lon": 134.705
        },
        {
          "name": "みやぎ蔵王えぼし (Eboshi)",
          "snow": 0.1,
          "prefecture": "宮城県",
          "lat": 38.1257,
          "lon": 140.5422
        },
        {
          "name": "星野リゾート ネコマ マウンテン (Nekoma)",
          "snow": 0.1,
          "prefecture": "福島県",
          "lat": 37.6042,
          "lon": 140.0381
        },
        {
          "name": "グランデコスノーリゾート (Grandeco)",
          "snow": 0.1,
          "prefecture": "福島県",
          "lat": 37.6853,
          "lon": 140.0933
        },
        {
          "name": "猪苗代スキー場 (Inawashiro)",
          "snow": 0.1,
          "prefecture": "福島県",
          "lat": 37.575,
          "lon": 140.063
        },
        {
          "name": "箕輪スキー場 (Minowa)",
          "snow": 0.1,
          "prefecture": "福島県",
          "lat": 37.64,
          "lon": 140.23
        },
        {
          "name": "沼尻スキー場 (Numajiri)",
          "snow": 0.1,
          "prefecture": "福島県",
          "lat": 37.625,
          "lon": 140.245
        },
        {
          "name": "会津高原だいくらスキー場 (Daikura)",
          "snow": 0.1,
          "prefecture": "福島県",
          "lat": 37.155,
          "lon": 139.705
        },
        {
          "name": "ニセコユナイテッド (Niseko United)",
          "snow": 0,
          "prefecture": "北海道",
          "lat": 42.8631,
          "lon": 140.7042
        },
        {
          "name": "ルスツリゾート (Rusutsu)",
          "snow": 0,
          "prefecture": "北海道",
          "lat": 42.7533,
          "lon": 140.9029
        },
        {
          "name": "キロロスノーワールド (Kiroro)",
          "snow": 0,
          "prefecture": "北海道",
          "lat": 43.0722,
          "lon": 140.9781
        },
        {
          "name": "札幌国際スキー場 (Sapporo Kokusai)",
          "snow": 0,
          "prefecture": "北海道",
          "lat": 43.0724,
          "lon": 141.0827
        },
        {
          "name": "トマムスキー場 (Tomamu)",
          "snow": 0,
          "prefecture": "北海道",
          "lat": 43.0628,
          "lon": 142.6322
        },
        {
          "name": "サッポロテイネ (Sapporo Teine)",
          "snow": 0,
          "prefecture": "北海道",
          "lat": 43.0973,
          "lon": 141.2044
        },
        {
          "name": "サホロリゾート (Sahoro)",
          "snow": 0,
          "prefecture": "北海道",
          "lat": 43.1749,
          "lon": 142.8076
        },
        {
          "name": "ニセコモイワスキー場 (Niseko Moiwa)",
          "snow": 0,
          "prefecture": "北海道",
          "lat": 42.855,
          "lon": 140.638
        },
        {
          "name": "大雪山旭岳ロープウェイ (Asahidake)",
          "snow": 0,
          "prefecture": "北海道",
          "lat": 43.6542,
          "lon": 142.7964
        },
        {
          "name": "安比高原スキー場 (Appi Kogen)",
          "snow": 0,
          "prefecture": "岩手県",
          "lat": 40.0019,
          "lon": 140.9749
        },
        {
          "name": "八幡平リゾート (Hachimantai)",
          "snow": 0,
          "prefecture": "岩手県",
          "lat": 39.9075,
          "lon": 141.0264
        },
        {
          "name": "阿仁スキー場 (Ani)",
          "snow": 0,
          "prefecture": "秋田県",
          "lat": 39.953,
          "lon": 140.354
        },
        {
          "name": "ハンターマウンテン塩原 (Hunter Mt)",
          "snow": 0,
          "prefecture": "栃木県",
          "lat": 36.9377,
          "lon": 139.7744
        },
        {
          "name": "マウントジーンズ那須 (Mt.JEANS)",
          "snow": 0,
          "prefecture": "栃木県",
          "lat": 37.1264,
          "lon": 139.988
        },
        {
          "name": "エーデルワイススキーリゾート (Edelweiss)",
          "snow": 0,
          "prefecture": "栃木県",
          "lat": 36.932,
          "lon": 139.755
        },
        {
          "name": "日光湯元温泉スキー場 (Nikko Yumoto)",
          "snow": 0,
          "prefecture": "栃木県",
          "lat": 36.805,
          "lon": 139.42
        },
        {
          "name": "丸沼高原スキー場 (Marunuma)",
          "snow": 0,
          "prefecture": "群馬県",
          "lat": 36.8183,
          "lon": 139.3364
        },
        {
          "name": "川場スキー場 (Kawaba)",
          "snow": 0,
          "prefecture": "群馬県",
          "lat": 36.8122,
          "lon": 139.1083
        },
        {
          "name": "ホワイトワールド尾瀬岩鞍 (Oze Iwakura)",
          "snow": 0,
          "prefecture": "群馬県",
          "lat": 36.84,
          "lon": 139.22
        },
        {
          "name": "かたしな高原スキー場 (Katashina)",
          "snow": 0,
          "prefecture": "群馬県",
          "lat": 36.83,
          "lon": 139.23
        },
        {
          "name": "びわ湖バレイ (Biwako Valley)",
          "snow": 0,
          "prefecture": "滋賀県",
          "lat": 35.203,
          "lon": 135.907
        },
        {
          "name": "箱館山スキー場 (Hakodateyama)",
          "snow": 0,
          "prefecture": "滋賀県",
          "lat": 35.455,
          "lon": 136.035
        },
        {
          "name": "恐羅漢スノーパーク (Osorakan)",
          "snow": 0,
          "prefecture": "広島県",
          "lat": 34.5957,
          "lon": 132.1466
        },
        {
          "name": "めがひらスキー場 (Megahira)",
          "snow": 0,
          "prefecture": "広島県",
          "lat": 34.4533,
          "lon": 132.1158
        },
        {
          "name": "芸北高原大佐スキー場 (Osa)",
          "snow": 0,
          "prefecture": "広島県",
          "lat": 34.7479,
          "lon": 132.2203
        },
        {
          "name": "ユートピアサイオト (Saioto)",
          "snow": 0,
          "prefecture": "広島県",
          "lat": 34.725,
          "lon": 132.355
        },
        {
          "name": "やわたハイランド191 (Yawata)",
          "snow": 0,
          "prefecture": "広島県",
          "lat": 34.6946,
          "lon": 132.16
        }
      ]
    },
    {
      "date": "2026-01-30",
      "display_date": "1/30 (金)",
      "rankings": [
        {
          "name": "立山山麓スキー場 (Tateyama Sanroku)",
          "snow": 13.8,
          "prefecture": "富山県",
          "lat": 36.5747,
          "lon": 137.417
        },
        {
          "name": "スカイバレースキー場 (Sky Valley)",
          "snow": 13.1,
          "prefecture": "兵庫県",
          "lat": 35.4489,
          "lon": 134.5458
        },
        {
          "name": "おじろスキー場 (Ojiro)",
          "snow": 13.1,
          "prefecture": "兵庫県",
          "lat": 35.425,
          "lon": 134.585
        },
        {
          "name": "IOX-AROSA (イオックスアローザ)",
          "snow": 12.8,
          "prefecture": "富山県",
          "lat": 36.5149,
          "lon": 136.8209
        },
        {
          "name": "ハチ北高原スキー場 (Hachi Kita)",
          "snow": 11.5,
          "prefecture": "兵庫県",
          "lat": 35.4045,
          "lon": 134.558
        },
        {
          "name": "たいらスキー場 (Taira)",
          "snow": 10.9,
          "prefecture": "富山県",
          "lat": 36.45,
          "lon": 136.95
        },
        {
          "name": "氷ノ山国際スキー場 (Hyonosen)",
          "snow": 10.7,
          "prefecture": "兵庫県",
          "lat": 35.355,
          "lon": 134.525
        },
        {
          "name": "グランスノー奥伊吹 (Okuibuki)",
          "snow": 10.6,
          "prefecture": "滋賀県",
          "lat": 35.522,
          "lon": 136.3872
        },
        {
          "name": "群馬みなかみほうだいぎスキー場 (Houdaigi)",
          "snow": 9.8,
          "prefecture": "群馬県",
          "lat": 36.852,
          "lon": 139.055
        },
        {
          "name": "牛岳温泉スキー場 (Ushidake Onsen)",
          "snow": 7.7,
          "prefecture": "富山県",
          "lat": 36.5737,
          "lon": 137.057
        },
        {
          "name": "たんばらスキーパーク (Tambara)",
          "snow": 6.8,
          "prefecture": "群馬県",
          "lat": 36.7867,
          "lon": 139.0667
        },
        {
          "name": "金沢市営医王山スキー場 (Iozen)",
          "snow": 6.8,
          "prefecture": "石川県",
          "lat": 36.48,
          "lon": 136.7
        },
        {
          "name": "川場スキー場 (Kawaba)",
          "snow": 6.4,
          "prefecture": "群馬県",
          "lat": 36.8122,
          "lon": 139.1083
        },
        {
          "name": "阿仁スキー場 (Ani)",
          "snow": 6.2,
          "prefecture": "秋田県",
          "lat": 39.953,
          "lon": 140.354
        },
        {
          "name": "ホワイトワールド尾瀬岩鞍 (Oze Iwakura)",
          "snow": 5.5,
          "prefecture": "群馬県",
          "lat": 36.84,
          "lon": 139.22
        },
        {
          "name": "かたしな高原スキー場 (Katashina)",
          "snow": 5.5,
          "prefecture": "群馬県",
          "lat": 36.83,
          "lon": 139.23
        },
        {
          "name": "月山スキー場 (Gassan)",
          "snow": 5.2,
          "prefecture": "山形県",
          "lat": 38.51892,
          "lon": 140.00662
        },
        {
          "name": "万座温泉スキー場 (Manza Onsen)",
          "snow": 4.7,
          "prefecture": "群馬県",
          "lat": 36.6341,
          "lon": 138.5133
        },
        {
          "name": "天元台高原 (Tengendai)",
          "snow": 4.5,
          "prefecture": "山形県",
          "lat": 37.7983,
          "lon": 140.1197
        },
        {
          "name": "ちくさ高原スキー場 (Chikusa)",
          "snow": 4.5,
          "prefecture": "兵庫県",
          "lat": 35.185,
          "lon": 134.455
        },
        {
          "name": "ノルン水上スキー場 (Norn Minakami)",
          "snow": 4.2,
          "prefecture": "群馬県",
          "lat": 36.8042,
          "lon": 138.9722
        },
        {
          "name": "たざわ湖スキー場 (Tazawako)",
          "snow": 4.1,
          "prefecture": "秋田県",
          "lat": 39.757,
          "lon": 140.758
        },
        {
          "name": "会津高原だいくらスキー場 (Daikura)",
          "snow": 4.1,
          "prefecture": "福島県",
          "lat": 37.155,
          "lon": 139.705
        },
        {
          "name": "箱館山スキー場 (Hakodateyama)",
          "snow": 4,
          "prefecture": "滋賀県",
          "lat": 35.455,
          "lon": 136.035
        },
        {
          "name": "八甲田スキー場 (Hakkoda)",
          "snow": 3.8,
          "prefecture": "青森県",
          "lat": 40.6868,
          "lon": 140.8654
        },
        {
          "name": "太平山スキー場オーパス (Opas)",
          "snow": 3.1,
          "prefecture": "秋田県",
          "lat": 39.78,
          "lon": 140.18
        },
        {
          "name": "青森スプリング (Aomori Spring)",
          "snow": 2.9,
          "prefecture": "青森県",
          "lat": 40.7303,
          "lon": 140.2479
        },
        {
          "name": "モヤヒルズ (Moya Hills)",
          "snow": 2.9,
          "prefecture": "青森県",
          "lat": 40.7275,
          "lon": 140.8033
        },
        {
          "name": "丸沼高原スキー場 (Marunuma)",
          "snow": 2.8,
          "prefecture": "群馬県",
          "lat": 36.8183,
          "lon": 139.3364
        },
        {
          "name": "星野リゾート ネコマ マウンテン (Nekoma)",
          "snow": 2.7,
          "prefecture": "福島県",
          "lat": 37.6042,
          "lon": 140.0381
        },
        {
          "name": "猪苗代スキー場 (Inawashiro)",
          "snow": 2.7,
          "prefecture": "福島県",
          "lat": 37.575,
          "lon": 140.063
        },
        {
          "name": "マウントジーンズ那須 (Mt.JEANS)",
          "snow": 2.7,
          "prefecture": "栃木県",
          "lat": 37.1264,
          "lon": 139.988
        },
        {
          "name": "箕輪スキー場 (Minowa)",
          "snow": 2.4,
          "prefecture": "福島県",
          "lat": 37.64,
          "lon": 140.23
        },
        {
          "name": "沼尻スキー場 (Numajiri)",
          "snow": 2.4,
          "prefecture": "福島県",
          "lat": 37.625,
          "lon": 140.245
        },
        {
          "name": "ハンターマウンテン塩原 (Hunter Mt)",
          "snow": 2.4,
          "prefecture": "栃木県",
          "lat": 36.9377,
          "lon": 139.7744
        },
        {
          "name": "雫石スキー場 (Shizukuishi)",
          "snow": 2.3,
          "prefecture": "岩手県",
          "lat": 39.718,
          "lon": 140.9575
        },
        {
          "name": "ジュネス栗駒 (Jeunesse)",
          "snow": 2.1,
          "prefecture": "秋田県",
          "lat": 39.1822,
          "lon": 140.6713
        },
        {
          "name": "グランデコスノーリゾート (Grandeco)",
          "snow": 2.1,
          "prefecture": "福島県",
          "lat": 37.6853,
          "lon": 140.0933
        },
        {
          "name": "びわ湖バレイ (Biwako Valley)",
          "snow": 2,
          "prefecture": "滋賀県",
          "lat": 35.203,
          "lon": 135.907
        },
        {
          "name": "オニコウベスキー場 (Onikoube)",
          "snow": 1.7,
          "prefecture": "宮城県",
          "lat": 38.802,
          "lon": 140.645
        },
        {
          "name": "峰山高原リゾート (Mineyama)",
          "snow": 1.7,
          "prefecture": "兵庫県",
          "lat": 35.155,
          "lon": 134.705
        },
        {
          "name": "夏油高原スキー場 (Geto Kogen)",
          "snow": 1.4,
          "prefecture": "岩手県",
          "lat": 39.2311,
          "lon": 140.9419
        },
        {
          "name": "岩手高原スノーパーク (Iwate Kogen)",
          "snow": 1.3,
          "prefecture": "岩手県",
          "lat": 39.715,
          "lon": 140.98
        },
        {
          "name": "大鰐温泉スキー場 (Owani Onsen)",
          "snow": 1.2,
          "prefecture": "青森県",
          "lat": 40.505,
          "lon": 140.556
        },
        {
          "name": "八幡平リゾート (Hachimantai)",
          "snow": 1,
          "prefecture": "岩手県",
          "lat": 39.9075,
          "lon": 141.0264
        },
        {
          "name": "マウンテンフィールド宮城蔵王すみかわ (Sumikawa)",
          "snow": 0.9,
          "prefecture": "宮城県",
          "lat": 38.125,
          "lon": 140.482
        },
        {
          "name": "日光湯元温泉スキー場 (Nikko Yumoto)",
          "snow": 0.9,
          "prefecture": "栃木県",
          "lat": 36.805,
          "lon": 139.42
        },
        {
          "name": "安比高原スキー場 (Appi Kogen)",
          "snow": 0.6,
          "prefecture": "岩手県",
          "lat": 40.0019,
          "lon": 140.9749
        },
        {
          "name": "みやぎ蔵王えぼし (Eboshi)",
          "snow": 0.5,
          "prefecture": "宮城県",
          "lat": 38.1257,
          "lon": 140.5422
        },
        {
          "name": "エーデルワイススキーリゾート (Edelweiss)",
          "snow": 0.5,
          "prefecture": "栃木県",
          "lat": 36.932,
          "lon": 139.755
        },
        {
          "name": "蔵王温泉スキー場 (Zao Onsen)",
          "snow": 0.4,
          "prefecture": "山形県",
          "lat": 38.1636,
          "lon": 140.4042
        },
        {
          "name": "サッポロテイネ (Sapporo Teine)",
          "snow": 0.3,
          "prefecture": "北海道",
          "lat": 43.0973,
          "lon": 141.2044
        },
        {
          "name": "スプリングバレー仙台泉 (Spring Valley)",
          "snow": 0.2,
          "prefecture": "宮城県",
          "lat": 38.423,
          "lon": 140.7226
        },
        {
          "name": "ジャングルジャングル (Jungle Jungle)",
          "snow": 0.2,
          "prefecture": "山形県",
          "lat": 38.455,
          "lon": 140.455
        },
        {
          "name": "ニセコユナイテッド (Niseko United)",
          "snow": 0,
          "prefecture": "北海道",
          "lat": 42.8631,
          "lon": 140.7042
        },
        {
          "name": "ルスツリゾート (Rusutsu)",
          "snow": 0,
          "prefecture": "北海道",
          "lat": 42.7533,
          "lon": 140.9029
        },
        {
          "name": "富良野スキー場 (Furano)",
          "snow": 0,
          "prefecture": "北海道",
          "lat": 43.3243,
          "lon": 142.3456
        },
        {
          "name": "キロロスノーワールド (Kiroro)",
          "snow": 0,
          "prefecture": "北海道",
          "lat": 43.0722,
          "lon": 140.9781
        },
        {
          "name": "札幌国際スキー場 (Sapporo Kokusai)",
          "snow": 0,
          "prefecture": "北海道",
          "lat": 43.0724,
          "lon": 141.0827
        },
        {
          "name": "トマムスキー場 (Tomamu)",
          "snow": 0,
          "prefecture": "北海道",
          "lat": 43.0628,
          "lon": 142.6322
        },
        {
          "name": "カムイスキーリンクス (Kamui)",
          "snow": 0,
          "prefecture": "北海道",
          "lat": 43.6444,
          "lon": 142.2283
        },
        {
          "name": "サホロリゾート (Sahoro)",
          "snow": 0,
          "prefecture": "北海道",
          "lat": 43.1749,
          "lon": 142.8076
        },
        {
          "name": "ニセコモイワスキー場 (Niseko Moiwa)",
          "snow": 0,
          "prefecture": "北海道",
          "lat": 42.855,
          "lon": 140.638
        },
        {
          "name": "大雪山旭岳ロープウェイ (Asahidake)",
          "snow": 0,
          "prefecture": "北海道",
          "lat": 43.6542,
          "lon": 142.7964
        },
        {
          "name": "恐羅漢スノーパーク (Osorakan)",
          "snow": 0,
          "prefecture": "広島県",
          "lat": 34.5957,
          "lon": 132.1466
        },
        {
          "name": "めがひらスキー場 (Megahira)",
          "snow": 0,
          "prefecture": "広島県",
          "lat": 34.4533,
          "lon": 132.1158
        },
        {
          "name": "芸北高原大佐スキー場 (Osa)",
          "snow": 0,
          "prefecture": "広島県",
          "lat": 34.7479,
          "lon": 132.2203
        },
        {
          "name": "ユートピアサイオト (Saioto)",
          "snow": 0,
          "prefecture": "広島県",
          "lat": 34.725,
          "lon": 132.355
        },
        {
          "name": "やわたハイランド191 (Yawata)",
          "snow": 0,
          "prefecture": "広島県",
          "lat": 34.6946,
          "lon": 132.16
        }
      ]
    },
    {
      "date": "2026-01-31",
      "display_date": "1/31 (土)",
      "rankings": [
        {
          "name": "八甲田スキー場 (Hakkoda)",
          "snow": 9.8,
          "prefecture": "青森県",
          "lat": 40.6868,
          "lon": 140.8654
        },
        {
          "name": "モヤヒルズ (Moya Hills)",
          "snow": 9.8,
          "prefecture": "青森県",
          "lat": 40.7275,
          "lon": 140.8033
        },
        {
          "name": "大鰐温泉スキー場 (Owani Onsen)",
          "snow": 7.8,
          "prefecture": "青森県",
          "lat": 40.505,
          "lon": 140.556
        },
        {
          "name": "ハンターマウンテン塩原 (Hunter Mt)",
          "snow": 6.7,
          "prefecture": "栃木県",
          "lat": 36.9377,
          "lon": 139.7744
        },
        {
          "name": "丸沼高原スキー場 (Marunuma)",
          "snow": 6.6,
          "prefecture": "群馬県",
          "lat": 36.8183,
          "lon": 139.3364
        },
        {
          "name": "会津高原だいくらスキー場 (Daikura)",
          "snow": 6.4,
          "prefecture": "福島県",
          "lat": 37.155,
          "lon": 139.705
        },
        {
          "name": "マウントジーンズ那須 (Mt.JEANS)",
          "snow": 6.4,
          "prefecture": "栃木県",
          "lat": 37.1264,
          "lon": 139.988
        },
        {
          "name": "ホワイトワールド尾瀬岩鞍 (Oze Iwakura)",
          "snow": 5.2,
          "prefecture": "群馬県",
          "lat": 36.84,
          "lon": 139.22
        },
        {
          "name": "かたしな高原スキー場 (Katashina)",
          "snow": 5.2,
          "prefecture": "群馬県",
          "lat": 36.83,
          "lon": 139.23
        },
        {
          "name": "カムイスキーリンクス (Kamui)",
          "snow": 3,
          "prefecture": "北海道",
          "lat": 43.6444,
          "lon": 142.2283
        },
        {
          "name": "大雪山旭岳ロープウェイ (Asahidake)",
          "snow": 2.2,
          "prefecture": "北海道",
          "lat": 43.6542,
          "lon": 142.7964
        },
        {
          "name": "日光湯元温泉スキー場 (Nikko Yumoto)",
          "snow": 2.1,
          "prefecture": "栃木県",
          "lat": 36.805,
          "lon": 139.42
        },
        {
          "name": "八幡平リゾート (Hachimantai)",
          "snow": 2,
          "prefecture": "岩手県",
          "lat": 39.9075,
          "lon": 141.0264
        },
        {
          "name": "IOX-AROSA (イオックスアローザ)",
          "snow": 1.9,
          "prefecture": "富山県",
          "lat": 36.5149,
          "lon": 136.8209
        },
        {
          "name": "たいらスキー場 (Taira)",
          "snow": 1.9,
          "prefecture": "富山県",
          "lat": 36.45,
          "lon": 136.95
        },
        {
          "name": "川場スキー場 (Kawaba)",
          "snow": 1.6,
          "prefecture": "群馬県",
          "lat": 36.8122,
          "lon": 139.1083
        },
        {
          "name": "たんばらスキーパーク (Tambara)",
          "snow": 1.6,
          "prefecture": "群馬県",
          "lat": 36.7867,
          "lon": 139.0667
        },
        {
          "name": "富良野スキー場 (Furano)",
          "snow": 1.5,
          "prefecture": "北海道",
          "lat": 43.3243,
          "lon": 142.3456
        },
        {
          "name": "青森スプリング (Aomori Spring)",
          "snow": 1.5,
          "prefecture": "青森県",
          "lat": 40.7303,
          "lon": 140.2479
        },
        {
          "name": "びわ湖バレイ (Biwako Valley)",
          "snow": 1.5,
          "prefecture": "滋賀県",
          "lat": 35.203,
          "lon": 135.907
        },
        {
          "name": "スプリングバレー仙台泉 (Spring Valley)",
          "snow": 1.4,
          "prefecture": "宮城県",
          "lat": 38.423,
          "lon": 140.7226
        },
        {
          "name": "ジャングルジャングル (Jungle Jungle)",
          "snow": 1.1,
          "prefecture": "山形県",
          "lat": 38.455,
          "lon": 140.455
        },
        {
          "name": "サッポロテイネ (Sapporo Teine)",
          "snow": 1,
          "prefecture": "北海道",
          "lat": 43.0973,
          "lon": 141.2044
        },
        {
          "name": "安比高原スキー場 (Appi Kogen)",
          "snow": 0.9,
          "prefecture": "岩手県",
          "lat": 40.0019,
          "lon": 140.9749
        },
        {
          "name": "夏油高原スキー場 (Geto Kogen)",
          "snow": 0.9,
          "prefecture": "岩手県",
          "lat": 39.2311,
          "lon": 140.9419
        },
        {
          "name": "おじろスキー場 (Ojiro)",
          "snow": 0.9,
          "prefecture": "兵庫県",
          "lat": 35.425,
          "lon": 134.585
        },
        {
          "name": "天元台高原 (Tengendai)",
          "snow": 0.8,
          "prefecture": "山形県",
          "lat": 37.7983,
          "lon": 140.1197
        },
        {
          "name": "札幌国際スキー場 (Sapporo Kokusai)",
          "snow": 0.6,
          "prefecture": "北海道",
          "lat": 43.0724,
          "lon": 141.0827
        },
        {
          "name": "雫石スキー場 (Shizukuishi)",
          "snow": 0.6,
          "prefecture": "岩手県",
          "lat": 39.718,
          "lon": 140.9575
        },
        {
          "name": "岩手高原スノーパーク (Iwate Kogen)",
          "snow": 0.6,
          "prefecture": "岩手県",
          "lat": 39.715,
          "lon": 140.98
        },
        {
          "name": "スカイバレースキー場 (Sky Valley)",
          "snow": 0.6,
          "prefecture": "兵庫県",
          "lat": 35.4489,
          "lon": 134.5458
        },
        {
          "name": "トマムスキー場 (Tomamu)",
          "snow": 0.4,
          "prefecture": "北海道",
          "lat": 43.0628,
          "lon": 142.6322
        },
        {
          "name": "サホロリゾート (Sahoro)",
          "snow": 0.4,
          "prefecture": "北海道",
          "lat": 43.1749,
          "lon": 142.8076
        },
        {
          "name": "阿仁スキー場 (Ani)",
          "snow": 0.4,
          "prefecture": "秋田県",
          "lat": 39.953,
          "lon": 140.354
        },
        {
          "name": "箕輪スキー場 (Minowa)",
          "snow": 0.4,
          "prefecture": "福島県",
          "lat": 37.64,
          "lon": 140.23
        },
        {
          "name": "沼尻スキー場 (Numajiri)",
          "snow": 0.4,
          "prefecture": "福島県",
          "lat": 37.625,
          "lon": 140.245
        },
        {
          "name": "エーデルワイススキーリゾート (Edelweiss)",
          "snow": 0.4,
          "prefecture": "栃木県",
          "lat": 36.932,
          "lon": 139.755
        },
        {
          "name": "群馬みなかみほうだいぎスキー場 (Houdaigi)",
          "snow": 0.4,
          "prefecture": "群馬県",
          "lat": 36.852,
          "lon": 139.055
        },
        {
          "name": "ちくさ高原スキー場 (Chikusa)",
          "snow": 0.4,
          "prefecture": "兵庫県",
          "lat": 35.185,
          "lon": 134.455
        },
        {
          "name": "たざわ湖スキー場 (Tazawako)",
          "snow": 0.2,
          "prefecture": "秋田県",
          "lat": 39.757,
          "lon": 140.758
        },
        {
          "name": "ジュネス栗駒 (Jeunesse)",
          "snow": 0.2,
          "prefecture": "秋田県",
          "lat": 39.1822,
          "lon": 140.6713
        },
        {
          "name": "ノルン水上スキー場 (Norn Minakami)",
          "snow": 0.2,
          "prefecture": "群馬県",
          "lat": 36.8042,
          "lon": 138.9722
        },
        {
          "name": "ハチ北高原スキー場 (Hachi Kita)",
          "snow": 0.2,
          "prefecture": "兵庫県",
          "lat": 35.4045,
          "lon": 134.558
        },
        {
          "name": "峰山高原リゾート (Mineyama)",
          "snow": 0.2,
          "prefecture": "兵庫県",
          "lat": 35.155,
          "lon": 134.705
        },
        {
          "name": "氷ノ山国際スキー場 (Hyonosen)",
          "snow": 0.2,
          "prefecture": "兵庫県",
          "lat": 35.355,
          "lon": 134.525
        },
        {
          "name": "ユートピアサイオト (Saioto)",
          "snow": 0.2,
          "prefecture": "広島県",
          "lat": 34.725,
          "lon": 132.355
        },
        {
          "name": "立山山麓スキー場 (Tateyama Sanroku)",
          "snow": 0.1,
          "prefecture": "富山県",
          "lat": 36.5747,
          "lon": 137.417
        },
        {
          "name": "芸北高原大佐スキー場 (Osa)",
          "snow": 0.1,
          "prefecture": "広島県",
          "lat": 34.7479,
          "lon": 132.2203
        },
        {
          "name": "ニセコユナイテッド (Niseko United)",
          "snow": 0,
          "prefecture": "北海道",
          "lat": 42.8631,
          "lon": 140.7042
        },
        {
          "name": "ルスツリゾート (Rusutsu)",
          "snow": 0,
          "prefecture": "北海道",
          "lat": 42.7533,
          "lon": 140.9029
        },
        {
          "name": "キロロスノーワールド (Kiroro)",
          "snow": 0,
          "prefecture": "北海道",
          "lat": 43.0722,
          "lon": 140.9781
        },
        {
          "name": "ニセコモイワスキー場 (Niseko Moiwa)",
          "snow": 0,
          "prefecture": "北海道",
          "lat": 42.855,
          "lon": 140.638
        },
        {
          "name": "みやぎ蔵王えぼし (Eboshi)",
          "snow": 0,
          "prefecture": "宮城県",
          "lat": 38.1257,
          "lon": 140.5422
        },
        {
          "name": "オニコウベスキー場 (Onikoube)",
          "snow": 0,
          "prefecture": "宮城県",
          "lat": 38.802,
          "lon": 140.645
        },
        {
          "name": "マウンテンフィールド宮城蔵王すみかわ (Sumikawa)",
          "snow": 0,
          "prefecture": "宮城県",
          "lat": 38.125,
          "lon": 140.482
        },
        {
          "name": "太平山スキー場オーパス (Opas)",
          "snow": 0,
          "prefecture": "秋田県",
          "lat": 39.78,
          "lon": 140.18
        },
        {
          "name": "蔵王温泉スキー場 (Zao Onsen)",
          "snow": 0,
          "prefecture": "山形県",
          "lat": 38.1636,
          "lon": 140.4042
        },
        {
          "name": "月山スキー場 (Gassan)",
          "snow": 0,
          "prefecture": "山形県",
          "lat": 38.51892,
          "lon": 140.00662
        },
        {
          "name": "星野リゾート ネコマ マウンテン (Nekoma)",
          "snow": 0,
          "prefecture": "福島県",
          "lat": 37.6042,
          "lon": 140.0381
        },
        {
          "name": "グランデコスノーリゾート (Grandeco)",
          "snow": 0,
          "prefecture": "福島県",
          "lat": 37.6853,
          "lon": 140.0933
        },
        {
          "name": "猪苗代スキー場 (Inawashiro)",
          "snow": 0,
          "prefecture": "福島県",
          "lat": 37.575,
          "lon": 140.063
        },
        {
          "name": "万座温泉スキー場 (Manza Onsen)",
          "snow": 0,
          "prefecture": "群馬県",
          "lat": 36.6341,
          "lon": 138.5133
        },
        {
          "name": "金沢市営医王山スキー場 (Iozen)",
          "snow": 0,
          "prefecture": "石川県",
          "lat": 36.48,
          "lon": 136.7
        },
        {
          "name": "牛岳温泉スキー場 (Ushidake Onsen)",
          "snow": 0,
          "prefecture": "富山県",
          "lat": 36.5737,
          "lon": 137.057
        },
        {
          "name": "グランスノー奥伊吹 (Okuibuki)",
          "snow": 0,
          "prefecture": "滋賀県",
          "lat": 35.522,
          "lon": 136.3872
        },
        {
          "name": "箱館山スキー場 (Hakodateyama)",
          "snow": 0,
          "prefecture": "滋賀県",
          "lat": 35.455,
          "lon": 136.035
        },
        {
          "name": "恐羅漢スノーパーク (Osorakan)",
          "snow": 0,
          "prefecture": "広島県",
          "lat": 34.5957,
          "lon": 132.1466
        },
        {
          "name": "めがひらスキー場 (Megahira)",
          "snow": 0,
          "prefecture": "広島県",
          "lat": 34.4533,
          "lon": 132.1158
        },
        {
          "name": "やわたハイランド191 (Yawata)",
          "snow": 0,
          "prefecture": "広島県",
          "lat": 34.6946,
          "lon": 132.16
        }
      ]
    },
    {
      "date": "2026-02-01",
      "display_date": "2/1 (日)",
      "rankings": [
        {
          "name": "富良野スキー場 (Furano)",
          "snow": 2.3,
          "prefecture": "北海道",
          "lat": 43.3243,
          "lon": 142.3456
        },
        {
          "name": "八幡平リゾート (Hachimantai)",
          "snow": 2.1,
          "prefecture": "岩手県",
          "lat": 39.9075,
          "lon": 141.0264
        },
        {
          "name": "サッポロテイネ (Sapporo Teine)",
          "snow": 2,
          "prefecture": "北海道",
          "lat": 43.0973,
          "lon": 141.2044
        },
        {
          "name": "ニセコモイワスキー場 (Niseko Moiwa)",
          "snow": 2,
          "prefecture": "北海道",
          "lat": 42.855,
          "lon": 140.638
        },
        {
          "name": "ジャングルジャングル (Jungle Jungle)",
          "snow": 2,
          "prefecture": "山形県",
          "lat": 38.455,
          "lon": 140.455
        },
        {
          "name": "ニセコユナイテッド (Niseko United)",
          "snow": 1.8,
          "prefecture": "北海道",
          "lat": 42.8631,
          "lon": 140.7042
        },
        {
          "name": "大雪山旭岳ロープウェイ (Asahidake)",
          "snow": 1.8,
          "prefecture": "北海道",
          "lat": 43.6542,
          "lon": 142.7964
        },
        {
          "name": "月山スキー場 (Gassan)",
          "snow": 1.8,
          "prefecture": "山形県",
          "lat": 38.51892,
          "lon": 140.00662
        },
        {
          "name": "ジュネス栗駒 (Jeunesse)",
          "snow": 1.5,
          "prefecture": "秋田県",
          "lat": 39.1822,
          "lon": 140.6713
        },
        {
          "name": "芸北高原大佐スキー場 (Osa)",
          "snow": 1.5,
          "prefecture": "広島県",
          "lat": 34.7479,
          "lon": 132.2203
        },
        {
          "name": "カムイスキーリンクス (Kamui)",
          "snow": 1.4,
          "prefecture": "北海道",
          "lat": 43.6444,
          "lon": 142.2283
        },
        {
          "name": "雫石スキー場 (Shizukuishi)",
          "snow": 1.4,
          "prefecture": "岩手県",
          "lat": 39.718,
          "lon": 140.9575
        },
        {
          "name": "岩手高原スノーパーク (Iwate Kogen)",
          "snow": 1.4,
          "prefecture": "岩手県",
          "lat": 39.715,
          "lon": 140.98
        },
        {
          "name": "恐羅漢スノーパーク (Osorakan)",
          "snow": 1.4,
          "prefecture": "広島県",
          "lat": 34.5957,
          "lon": 132.1466
        },
        {
          "name": "めがひらスキー場 (Megahira)",
          "snow": 1.4,
          "prefecture": "広島県",
          "lat": 34.4533,
          "lon": 132.1158
        },
        {
          "name": "やわたハイランド191 (Yawata)",
          "snow": 1.4,
          "prefecture": "広島県",
          "lat": 34.6946,
          "lon": 132.16
        },
        {
          "name": "大鰐温泉スキー場 (Owani Onsen)",
          "snow": 1.3,
          "prefecture": "青森県",
          "lat": 40.505,
          "lon": 140.556
        },
        {
          "name": "安比高原スキー場 (Appi Kogen)",
          "snow": 1.3,
          "prefecture": "岩手県",
          "lat": 40.0019,
          "lon": 140.9749
        },
        {
          "name": "夏油高原スキー場 (Geto Kogen)",
          "snow": 1.3,
          "prefecture": "岩手県",
          "lat": 39.2311,
          "lon": 140.9419
        },
        {
          "name": "オニコウベスキー場 (Onikoube)",
          "snow": 1.3,
          "prefecture": "宮城県",
          "lat": 38.802,
          "lon": 140.645
        },
        {
          "name": "ユートピアサイオト (Saioto)",
          "snow": 1.3,
          "prefecture": "広島県",
          "lat": 34.725,
          "lon": 132.355
        },
        {
          "name": "みやぎ蔵王えぼし (Eboshi)",
          "snow": 1.1,
          "prefecture": "宮城県",
          "lat": 38.1257,
          "lon": 140.5422
        },
        {
          "name": "マウンテンフィールド宮城蔵王すみかわ (Sumikawa)",
          "snow": 1.1,
          "prefecture": "宮城県",
          "lat": 38.125,
          "lon": 140.482
        },
        {
          "name": "ホワイトワールド尾瀬岩鞍 (Oze Iwakura)",
          "snow": 1.1,
          "prefecture": "群馬県",
          "lat": 36.84,
          "lon": 139.22
        },
        {
          "name": "かたしな高原スキー場 (Katashina)",
          "snow": 1.1,
          "prefecture": "群馬県",
          "lat": 36.83,
          "lon": 139.23
        },
        {
          "name": "天元台高原 (Tengendai)",
          "snow": 1,
          "prefecture": "山形県",
          "lat": 37.7983,
          "lon": 140.1197
        },
        {
          "name": "スプリングバレー仙台泉 (Spring Valley)",
          "snow": 0.9,
          "prefecture": "宮城県",
          "lat": 38.423,
          "lon": 140.7226
        },
        {
          "name": "キロロスノーワールド (Kiroro)",
          "snow": 0.8,
          "prefecture": "北海道",
          "lat": 43.0722,
          "lon": 140.9781
        },
        {
          "name": "星野リゾート ネコマ マウンテン (Nekoma)",
          "snow": 0.8,
          "prefecture": "福島県",
          "lat": 37.6042,
          "lon": 140.0381
        },
        {
          "name": "グランデコスノーリゾート (Grandeco)",
          "snow": 0.8,
          "prefecture": "福島県",
          "lat": 37.6853,
          "lon": 140.0933
        },
        {
          "name": "猪苗代スキー場 (Inawashiro)",
          "snow": 0.8,
          "prefecture": "福島県",
          "lat": 37.575,
          "lon": 140.063
        },
        {
          "name": "箕輪スキー場 (Minowa)",
          "snow": 0.8,
          "prefecture": "福島県",
          "lat": 37.64,
          "lon": 140.23
        },
        {
          "name": "沼尻スキー場 (Numajiri)",
          "snow": 0.8,
          "prefecture": "福島県",
          "lat": 37.625,
          "lon": 140.245
        },
        {
          "name": "トマムスキー場 (Tomamu)",
          "snow": 0.6,
          "prefecture": "北海道",
          "lat": 43.0628,
          "lon": 142.6322
        },
        {
          "name": "サホロリゾート (Sahoro)",
          "snow": 0.6,
          "prefecture": "北海道",
          "lat": 43.1749,
          "lon": 142.8076
        },
        {
          "name": "青森スプリング (Aomori Spring)",
          "snow": 0.6,
          "prefecture": "青森県",
          "lat": 40.7303,
          "lon": 140.2479
        },
        {
          "name": "たざわ湖スキー場 (Tazawako)",
          "snow": 0.6,
          "prefecture": "秋田県",
          "lat": 39.757,
          "lon": 140.758
        },
        {
          "name": "ルスツリゾート (Rusutsu)",
          "snow": 0.4,
          "prefecture": "北海道",
          "lat": 42.7533,
          "lon": 140.9029
        },
        {
          "name": "札幌国際スキー場 (Sapporo Kokusai)",
          "snow": 0.4,
          "prefecture": "北海道",
          "lat": 43.0724,
          "lon": 141.0827
        },
        {
          "name": "蔵王温泉スキー場 (Zao Onsen)",
          "snow": 0.4,
          "prefecture": "山形県",
          "lat": 38.1636,
          "lon": 140.4042
        },
        {
          "name": "丸沼高原スキー場 (Marunuma)",
          "snow": 0.4,
          "prefecture": "群馬県",
          "lat": 36.8183,
          "lon": 139.3364
        },
        {
          "name": "グランスノー奥伊吹 (Okuibuki)",
          "snow": 0.4,
          "prefecture": "滋賀県",
          "lat": 35.522,
          "lon": 136.3872
        },
        {
          "name": "八甲田スキー場 (Hakkoda)",
          "snow": 0.3,
          "prefecture": "青森県",
          "lat": 40.6868,
          "lon": 140.8654
        },
        {
          "name": "モヤヒルズ (Moya Hills)",
          "snow": 0.3,
          "prefecture": "青森県",
          "lat": 40.7275,
          "lon": 140.8033
        },
        {
          "name": "阿仁スキー場 (Ani)",
          "snow": 0.3,
          "prefecture": "秋田県",
          "lat": 39.953,
          "lon": 140.354
        },
        {
          "name": "会津高原だいくらスキー場 (Daikura)",
          "snow": 0.3,
          "prefecture": "福島県",
          "lat": 37.155,
          "lon": 139.705
        },
        {
          "name": "マウントジーンズ那須 (Mt.JEANS)",
          "snow": 0.3,
          "prefecture": "栃木県",
          "lat": 37.1264,
          "lon": 139.988
        },
        {
          "name": "川場スキー場 (Kawaba)",
          "snow": 0.3,
          "prefecture": "群馬県",
          "lat": 36.8122,
          "lon": 139.1083
        },
        {
          "name": "たんばらスキーパーク (Tambara)",
          "snow": 0.3,
          "prefecture": "群馬県",
          "lat": 36.7867,
          "lon": 139.0667
        },
        {
          "name": "たいらスキー場 (Taira)",
          "snow": 0.3,
          "prefecture": "富山県",
          "lat": 36.45,
          "lon": 136.95
        },
        {
          "name": "群馬みなかみほうだいぎスキー場 (Houdaigi)",
          "snow": 0.2,
          "prefecture": "群馬県",
          "lat": 36.852,
          "lon": 139.055
        },
        {
          "name": "ハンターマウンテン塩原 (Hunter Mt)",
          "snow": 0.1,
          "prefecture": "栃木県",
          "lat": 36.9377,
          "lon": 139.7744
        },
        {
          "name": "日光湯元温泉スキー場 (Nikko Yumoto)",
          "snow": 0.1,
          "prefecture": "栃木県",
          "lat": 36.805,
          "lon": 139.42
        },
        {
          "name": "IOX-AROSA (イオックスアローザ)",
          "snow": 0.1,
          "prefecture": "富山県",
          "lat": 36.5149,
          "lon": 136.8209
        },
        {
          "name": "牛岳温泉スキー場 (Ushidake Onsen)",
          "snow": 0.1,
          "prefecture": "富山県",
          "lat": 36.5737,
          "lon": 137.057
        },
        {
          "name": "太平山スキー場オーパス (Opas)",
          "snow": 0,
          "prefecture": "秋田県",
          "lat": 39.78,
          "lon": 140.18
        },
        {
          "name": "エーデルワイススキーリゾート (Edelweiss)",
          "snow": 0,
          "prefecture": "栃木県",
          "lat": 36.932,
          "lon": 139.755
        },
        {
          "name": "万座温泉スキー場 (Manza Onsen)",
          "snow": 0,
          "prefecture": "群馬県",
          "lat": 36.6341,
          "lon": 138.5133
        },
        {
          "name": "ノルン水上スキー場 (Norn Minakami)",
          "snow": 0,
          "prefecture": "群馬県",
          "lat": 36.8042,
          "lon": 138.9722
        },
        {
          "name": "金沢市営医王山スキー場 (Iozen)",
          "snow": 0,
          "prefecture": "石川県",
          "lat": 36.48,
          "lon": 136.7
        },
        {
          "name": "立山山麓スキー場 (Tateyama Sanroku)",
          "snow": 0,
          "prefecture": "富山県",
          "lat": 36.5747,
          "lon": 137.417
        },
        {
          "name": "びわ湖バレイ (Biwako Valley)",
          "snow": 0,
          "prefecture": "滋賀県",
          "lat": 35.203,
          "lon": 135.907
        },
        {
          "name": "箱館山スキー場 (Hakodateyama)",
          "snow": 0,
          "prefecture": "滋賀県",
          "lat": 35.455,
          "lon": 136.035
        },
        {
          "name": "ハチ北高原スキー場 (Hachi Kita)",
          "snow": 0,
          "prefecture": "兵庫県",
          "lat": 35.4045,
          "lon": 134.558
        },
        {
          "name": "スカイバレースキー場 (Sky Valley)",
          "snow": 0,
          "prefecture": "兵庫県",
          "lat": 35.4489,
          "lon": 134.5458
        },
        {
          "name": "おじろスキー場 (Ojiro)",
          "snow": 0,
          "prefecture": "兵庫県",
          "lat": 35.425,
          "lon": 134.585
        },
        {
          "name": "ちくさ高原スキー場 (Chikusa)",
          "snow": 0,
          "prefecture": "兵庫県",
          "lat": 35.185,
          "lon": 134.455
        },
        {
          "name": "峰山高原リゾート (Mineyama)",
          "snow": 0,
          "prefecture": "兵庫県",
          "lat": 35.155,
          "lon": 134.705
        },
        {
          "name": "氷ノ山国際スキー場 (Hyonosen)",
          "snow": 0,
          "prefecture": "兵庫県",
          "lat": 35.355,
          "lon": 134.525
        }
      ]
    },
    {
      "date": "2026-02-02",
      "display_date": "2/2 (月)",
      "rankings": [
        {
          "name": "月山スキー場 (Gassan)",
          "snow": 11.2,
          "prefecture": "山形県",
          "lat": 38.51892,
          "lon": 140.00662
        },
        {
          "name": "たいらスキー場 (Taira)",
          "snow": 7.1,
          "prefecture": "富山県",
          "lat": 36.45,
          "lon": 136.95
        },
        {
          "name": "天元台高原 (Tengendai)",
          "snow": 5.2,
          "prefecture": "山形県",
          "lat": 37.7983,
          "lon": 140.1197
        },
        {
          "name": "オニコウベスキー場 (Onikoube)",
          "snow": 4.3,
          "prefecture": "宮城県",
          "lat": 38.802,
          "lon": 140.645
        },
        {
          "name": "ジュネス栗駒 (Jeunesse)",
          "snow": 4.1,
          "prefecture": "秋田県",
          "lat": 39.1822,
          "lon": 140.6713
        },
        {
          "name": "大鰐温泉スキー場 (Owani Onsen)",
          "snow": 3.8,
          "prefecture": "青森県",
          "lat": 40.505,
          "lon": 140.556
        },
        {
          "name": "阿仁スキー場 (Ani)",
          "snow": 3.7,
          "prefecture": "秋田県",
          "lat": 39.953,
          "lon": 140.354
        },
        {
          "name": "ジャングルジャングル (Jungle Jungle)",
          "snow": 3.7,
          "prefecture": "山形県",
          "lat": 38.455,
          "lon": 140.455
        },
        {
          "name": "太平山スキー場オーパス (Opas)",
          "snow": 3.6,
          "prefecture": "秋田県",
          "lat": 39.78,
          "lon": 140.18
        },
        {
          "name": "スプリングバレー仙台泉 (Spring Valley)",
          "snow": 3.3,
          "prefecture": "宮城県",
          "lat": 38.423,
          "lon": 140.7226
        },
        {
          "name": "夏油高原スキー場 (Geto Kogen)",
          "snow": 2.9,
          "prefecture": "岩手県",
          "lat": 39.2311,
          "lon": 140.9419
        },
        {
          "name": "マウンテンフィールド宮城蔵王すみかわ (Sumikawa)",
          "snow": 2.8,
          "prefecture": "宮城県",
          "lat": 38.125,
          "lon": 140.482
        },
        {
          "name": "蔵王温泉スキー場 (Zao Onsen)",
          "snow": 2.5,
          "prefecture": "山形県",
          "lat": 38.1636,
          "lon": 140.4042
        },
        {
          "name": "IOX-AROSA (イオックスアローザ)",
          "snow": 2.2,
          "prefecture": "富山県",
          "lat": 36.5149,
          "lon": 136.8209
        },
        {
          "name": "グランスノー奥伊吹 (Okuibuki)",
          "snow": 2.1,
          "prefecture": "滋賀県",
          "lat": 35.522,
          "lon": 136.3872
        },
        {
          "name": "群馬みなかみほうだいぎスキー場 (Houdaigi)",
          "snow": 2,
          "prefecture": "群馬県",
          "lat": 36.852,
          "lon": 139.055
        },
        {
          "name": "ユートピアサイオト (Saioto)",
          "snow": 2,
          "prefecture": "広島県",
          "lat": 34.725,
          "lon": 132.355
        },
        {
          "name": "星野リゾート ネコマ マウンテン (Nekoma)",
          "snow": 1.7,
          "prefecture": "福島県",
          "lat": 37.6042,
          "lon": 140.0381
        },
        {
          "name": "グランデコスノーリゾート (Grandeco)",
          "snow": 1.7,
          "prefecture": "福島県",
          "lat": 37.6853,
          "lon": 140.0933
        },
        {
          "name": "猪苗代スキー場 (Inawashiro)",
          "snow": 1.7,
          "prefecture": "福島県",
          "lat": 37.575,
          "lon": 140.063
        },
        {
          "name": "箕輪スキー場 (Minowa)",
          "snow": 1.7,
          "prefecture": "福島県",
          "lat": 37.64,
          "lon": 140.23
        },
        {
          "name": "沼尻スキー場 (Numajiri)",
          "snow": 1.7,
          "prefecture": "福島県",
          "lat": 37.625,
          "lon": 140.245
        },
        {
          "name": "みやぎ蔵王えぼし (Eboshi)",
          "snow": 1.6,
          "prefecture": "宮城県",
          "lat": 38.1257,
          "lon": 140.5422
        },
        {
          "name": "ホワイトワールド尾瀬岩鞍 (Oze Iwakura)",
          "snow": 1.2,
          "prefecture": "群馬県",
          "lat": 36.84,
          "lon": 139.22
        },
        {
          "name": "かたしな高原スキー場 (Katashina)",
          "snow": 1.2,
          "prefecture": "群馬県",
          "lat": 36.83,
          "lon": 139.23
        },
        {
          "name": "ニセコモイワスキー場 (Niseko Moiwa)",
          "snow": 1.1,
          "prefecture": "北海道",
          "lat": 42.855,
          "lon": 140.638
        },
        {
          "name": "八甲田スキー場 (Hakkoda)",
          "snow": 1.1,
          "prefecture": "青森県",
          "lat": 40.6868,
          "lon": 140.8654
        },
        {
          "name": "モヤヒルズ (Moya Hills)",
          "snow": 1.1,
          "prefecture": "青森県",
          "lat": 40.7275,
          "lon": 140.8033
        },
        {
          "name": "安比高原スキー場 (Appi Kogen)",
          "snow": 1.1,
          "prefecture": "岩手県",
          "lat": 40.0019,
          "lon": 140.9749
        },
        {
          "name": "スカイバレースキー場 (Sky Valley)",
          "snow": 1.1,
          "prefecture": "兵庫県",
          "lat": 35.4489,
          "lon": 134.5458
        },
        {
          "name": "サッポロテイネ (Sapporo Teine)",
          "snow": 1,
          "prefecture": "北海道",
          "lat": 43.0973,
          "lon": 141.2044
        },
        {
          "name": "八幡平リゾート (Hachimantai)",
          "snow": 1,
          "prefecture": "岩手県",
          "lat": 39.9075,
          "lon": 141.0264
        },
        {
          "name": "恐羅漢スノーパーク (Osorakan)",
          "snow": 1,
          "prefecture": "広島県",
          "lat": 34.5957,
          "lon": 132.1466
        },
        {
          "name": "やわたハイランド191 (Yawata)",
          "snow": 1,
          "prefecture": "広島県",
          "lat": 34.6946,
          "lon": 132.16
        },
        {
          "name": "川場スキー場 (Kawaba)",
          "snow": 0.8,
          "prefecture": "群馬県",
          "lat": 36.8122,
          "lon": 139.1083
        },
        {
          "name": "たんばらスキーパーク (Tambara)",
          "snow": 0.8,
          "prefecture": "群馬県",
          "lat": 36.7867,
          "lon": 139.0667
        },
        {
          "name": "おじろスキー場 (Ojiro)",
          "snow": 0.8,
          "prefecture": "兵庫県",
          "lat": 35.425,
          "lon": 134.585
        },
        {
          "name": "芸北高原大佐スキー場 (Osa)",
          "snow": 0.8,
          "prefecture": "広島県",
          "lat": 34.7479,
          "lon": 132.2203
        },
        {
          "name": "雫石スキー場 (Shizukuishi)",
          "snow": 0.6,
          "prefecture": "岩手県",
          "lat": 39.718,
          "lon": 140.9575
        },
        {
          "name": "岩手高原スノーパーク (Iwate Kogen)",
          "snow": 0.6,
          "prefecture": "岩手県",
          "lat": 39.715,
          "lon": 140.98
        },
        {
          "name": "牛岳温泉スキー場 (Ushidake Onsen)",
          "snow": 0.6,
          "prefecture": "富山県",
          "lat": 36.5737,
          "lon": 137.057
        },
        {
          "name": "めがひらスキー場 (Megahira)",
          "snow": 0.6,
          "prefecture": "広島県",
          "lat": 34.4533,
          "lon": 132.1158
        },
        {
          "name": "ニセコユナイテッド (Niseko United)",
          "snow": 0.5,
          "prefecture": "北海道",
          "lat": 42.8631,
          "lon": 140.7042
        },
        {
          "name": "キロロスノーワールド (Kiroro)",
          "snow": 0.5,
          "prefecture": "北海道",
          "lat": 43.0722,
          "lon": 140.9781
        },
        {
          "name": "ハンターマウンテン塩原 (Hunter Mt)",
          "snow": 0.5,
          "prefecture": "栃木県",
          "lat": 36.9377,
          "lon": 139.7744
        },
        {
          "name": "丸沼高原スキー場 (Marunuma)",
          "snow": 0.5,
          "prefecture": "群馬県",
          "lat": 36.8183,
          "lon": 139.3364
        },
        {
          "name": "青森スプリング (Aomori Spring)",
          "snow": 0.4,
          "prefecture": "青森県",
          "lat": 40.7303,
          "lon": 140.2479
        },
        {
          "name": "たざわ湖スキー場 (Tazawako)",
          "snow": 0.2,
          "prefecture": "秋田県",
          "lat": 39.757,
          "lon": 140.758
        },
        {
          "name": "富良野スキー場 (Furano)",
          "snow": 0.1,
          "prefecture": "北海道",
          "lat": 43.3243,
          "lon": 142.3456
        },
        {
          "name": "会津高原だいくらスキー場 (Daikura)",
          "snow": 0.1,
          "prefecture": "福島県",
          "lat": 37.155,
          "lon": 139.705
        },
        {
          "name": "マウントジーンズ那須 (Mt.JEANS)",
          "snow": 0.1,
          "prefecture": "栃木県",
          "lat": 37.1264,
          "lon": 139.988
        },
        {
          "name": "万座温泉スキー場 (Manza Onsen)",
          "snow": 0.1,
          "prefecture": "群馬県",
          "lat": 36.6341,
          "lon": 138.5133
        },
        {
          "name": "ルスツリゾート (Rusutsu)",
          "snow": 0,
          "prefecture": "北海道",
          "lat": 42.7533,
          "lon": 140.9029
        },
        {
          "name": "札幌国際スキー場 (Sapporo Kokusai)",
          "snow": 0,
          "prefecture": "北海道",
          "lat": 43.0724,
          "lon": 141.0827
        },
        {
          "name": "トマムスキー場 (Tomamu)",
          "snow": 0,
          "prefecture": "北海道",
          "lat": 43.0628,
          "lon": 142.6322
        },
        {
          "name": "カムイスキーリンクス (Kamui)",
          "snow": 0,
          "prefecture": "北海道",
          "lat": 43.6444,
          "lon": 142.2283
        },
        {
          "name": "サホロリゾート (Sahoro)",
          "snow": 0,
          "prefecture": "北海道",
          "lat": 43.1749,
          "lon": 142.8076
        },
        {
          "name": "大雪山旭岳ロープウェイ (Asahidake)",
          "snow": 0,
          "prefecture": "北海道",
          "lat": 43.6542,
          "lon": 142.7964
        },
        {
          "name": "エーデルワイススキーリゾート (Edelweiss)",
          "snow": 0,
          "prefecture": "栃木県",
          "lat": 36.932,
          "lon": 139.755
        },
        {
          "name": "日光湯元温泉スキー場 (Nikko Yumoto)",
          "snow": 0,
          "prefecture": "栃木県",
          "lat": 36.805,
          "lon": 139.42
        },
        {
          "name": "ノルン水上スキー場 (Norn Minakami)",
          "snow": 0,
          "prefecture": "群馬県",
          "lat": 36.8042,
          "lon": 138.9722
        },
        {
          "name": "金沢市営医王山スキー場 (Iozen)",
          "snow": 0,
          "prefecture": "石川県",
          "lat": 36.48,
          "lon": 136.7
        },
        {
          "name": "立山山麓スキー場 (Tateyama Sanroku)",
          "snow": 0,
          "prefecture": "富山県",
          "lat": 36.5747,
          "lon": 137.417
        },
        {
          "name": "びわ湖バレイ (Biwako Valley)",
          "snow": 0,
          "prefecture": "滋賀県",
          "lat": 35.203,
          "lon": 135.907
        },
        {
          "name": "箱館山スキー場 (Hakodateyama)",
          "snow": 0,
          "prefecture": "滋賀県",
          "lat": 35.455,
          "lon": 136.035
        },
        {
          "name": "ハチ北高原スキー場 (Hachi Kita)",
          "snow": 0,
          "prefecture": "兵庫県",
          "lat": 35.4045,
          "lon": 134.558
        },
        {
          "name": "ちくさ高原スキー場 (Chikusa)",
          "snow": 0,
          "prefecture": "兵庫県",
          "lat": 35.185,
          "lon": 134.455
        },
        {
          "name": "峰山高原リゾート (Mineyama)",
          "snow": 0,
          "prefecture": "兵庫県",
          "lat": 35.155,
          "lon": 134.705
        },
        {
          "name": "氷ノ山国際スキー場 (Hyonosen)",
          "snow": 0,
          "prefecture": "兵庫県",
          "lat": 35.355,
          "lon": 134.525
        }
      ]
    }
  ]
}