{
  "updated_at": "2026-02-09T06:13:38.273Z",
  "dates": [
    {
      "date": "2026-02-10",
      "display_date": "2/10 (火)",
      "rankings": [
        {
          "name": "奥利根スノーパーク (Okutone)",
          "snow": 0,
          "prefecture": "群馬県",
          "lat": 36.805,
          "lon": 139.005
        },
        {
          "name": "苗場スキー場 (Naeba)",
          "snow": 0,
          "prefecture": "新潟県",
          "lat": 36.7933,
          "lon": 138.7844
        },
        {
          "name": "かぐらスキー場 (Kagura)",
          "snow": 0,
          "prefecture": "新潟県",
          "lat": 36.8375,
          "lon": 138.7778
        },
        {
          "name": "GALA湯沢 (GALA Yuzawa)",
          "snow": 0,
          "prefecture": "新潟県",
          "lat": 36.9405,
          "lon": 138.7944
        },
        {
          "name": "石打丸山スキー場 (Ishiuchi)",
          "snow": 0,
          "prefecture": "新潟県",
          "lat": 36.9892,
          "lon": 138.8028
        },
        {
          "name": "ロッテアライリゾート (Lotte Arai)",
          "snow": 0,
          "prefecture": "新潟県",
          "lat": 36.99064,
          "lon": 138.18138
        },
        {
          "name": "妙高杉ノ原スキー場 (Myoko Suginohara)",
          "snow": 0,
          "prefecture": "新潟県",
          "lat": 36.8336,
          "lon": 138.1633
        },
        {
          "name": "舞子スノーリゾート (Maiko)",
          "snow": 0,
          "prefecture": "新潟県",
          "lat": 36.953,
          "lon": 138.835
        },
        {
          "name": "湯沢高原スキー場 (Yuzawa Kogen)",
          "snow": 0,
          "prefecture": "新潟県",
          "lat": 36.945,
          "lon": 138.805
        },
        {
          "name": "神立スノーリゾート (Kandatsu)",
          "snow": 0,
          "prefecture": "新潟県",
          "lat": 36.92,
          "lon": 138.835
        },
        {
          "name": "ムイカスノーリゾート (Muika)",
          "snow": 0,
          "prefecture": "新潟県",
          "lat": 37.055,
          "lon": 138.955
        },
        {
          "name": "シャルマン火打スキー場 (Charmant)",
          "snow": 0,
          "prefecture": "新潟県",
          "lat": 36.985,
          "lon": 138.055
        },
        {
          "name": "赤倉観光リゾート (Akakura)",
          "snow": 0,
          "prefecture": "新潟県",
          "lat": 36.885,
          "lon": 138.165
        },
        {
          "name": "関温泉スキー場 (Seki Onsen)",
          "snow": 0,
          "prefecture": "新潟県",
          "lat": 36.895,
          "lon": 138.135
        },
        {
          "name": "上越国際スキー場 (Joetsu Kokusai)",
          "snow": 0,
          "prefecture": "新潟県",
          "lat": 37.015,
          "lon": 138.85
        },
        {
          "name": "キューピッドバレイスキー場 (Cupid Valley)",
          "snow": 0,
          "prefecture": "新潟県",
          "lat": 37.05513,
          "lon": 138.4845
        },
        {
          "name": "白馬八方尾根スキー場 (Hakuba Happo)",
          "snow": 0,
          "prefecture": "長野県",
          "lat": 36.7018,
          "lon": 137.8327
        },
        {
          "name": "白馬五竜スキー場 (Hakuba Goryu)",
          "snow": 0,
          "prefecture": "長野県",
          "lat": 36.6572,
          "lon": 137.8306
        },
        {
          "name": "栂池高原スキー場 (Tsugaike)",
          "snow": 0,
          "prefecture": "長野県",
          "lat": 36.7536,
          "lon": 137.8767
        },
        {
          "name": "野沢温泉スキー場 (Nozawa Onsen)",
          "snow": 0,
          "prefecture": "長野県",
          "lat": 36.9197,
          "lon": 138.4485
        },
        {
          "name": "志賀高原 焼額山 (Shiga Kogen)",
          "snow": 0,
          "prefecture": "長野県",
          "lat": 36.7621,
          "lon": 138.5367
        },
        {
          "name": "菅平高原スノーリゾート (Sugadaira)",
          "snow": 0,
          "prefecture": "長野県",
          "lat": 36.5414,
          "lon": 138.3581
        },
        {
          "name": "軽井沢プリンスホテルスキー場 (Karuizawa)",
          "snow": 0,
          "prefecture": "長野県",
          "lat": 36.3353,
          "lon": 138.6339
        },
        {
          "name": "白馬コルチナスキー場 (Cortina)",
          "snow": 0,
          "prefecture": "長野県",
          "lat": 36.785,
          "lon": 137.885
        },
        {
          "name": "白馬乗鞍温泉スキー場 (Norikura)",
          "snow": 0,
          "prefecture": "長野県",
          "lat": 36.775,
          "lon": 137.865
        },
        {
          "name": "白馬岩岳スノーフィールド (Iwatake)",
          "snow": 0,
          "prefecture": "長野県",
          "lat": 36.715,
          "lon": 137.865
        },
        {
          "name": "Hakuba47",
          "snow": 0,
          "prefecture": "長野県",
          "lat": 36.685,
          "lon": 137.835
        },
        {
          "name": "竜王スキーパーク (Ryuoo)",
          "snow": 0,
          "prefecture": "長野県",
          "lat": 36.805,
          "lon": 138.455
        },
        {
          "name": "斑尾高原スキー場 (Madarao)",
          "snow": 0,
          "prefecture": "長野県",
          "lat": 36.845,
          "lon": 138.305
        },
        {
          "name": "タングラムスキーサーカス (Tangram)",
          "snow": 0,
          "prefecture": "長野県",
          "lat": 36.855,
          "lon": 138.285
        },
        {
          "name": "戸隠スキー場 (Togakushi)",
          "snow": 0,
          "prefecture": "長野県",
          "lat": 36.765,
          "lon": 138.085
        },
        {
          "name": "車山高原SKYPARK (Kurumayama)",
          "snow": 0,
          "prefecture": "長野県",
          "lat": 36.105,
          "lon": 138.205
        },
        {
          "name": "奥志賀高原スキー場 (Okushiga)",
          "snow": 0,
          "prefecture": "長野県",
          "lat": 36.78,
          "lon": 138.54
        },
        {
          "name": "ふじてんスノーリゾート (Fujiten)",
          "snow": 0,
          "prefecture": "山梨県",
          "lat": 35.4328,
          "lon": 138.6947
        },
        {
          "name": "サンメドウズ清里 (Sun Meadows)",
          "snow": 0,
          "prefecture": "山梨県",
          "lat": 35.9381,
          "lon": 138.4069
        },
        {
          "name": "カムイみさかスキー場 (Misaka)",
          "snow": 0,
          "prefecture": "山梨県",
          "lat": 35.585,
          "lon": 138.655
        },
        {
          "name": "高鷲スノーパーク (Takasu Snow Park)",
          "snow": 0,
          "prefecture": "岐阜県",
          "lat": 35.998,
          "lon": 136.8773
        },
        {
          "name": "ダイナランド (Dynaland)",
          "snow": 0,
          "prefecture": "岐阜県",
          "lat": 35.9967,
          "lon": 136.8606
        },
        {
          "name": "鷲ヶ岳スキー場 (Washigatake)",
          "snow": 0,
          "prefecture": "岐阜県",
          "lat": 35.9794,
          "lon": 136.8483
        },
        {
          "name": "ホワイトピアたかす (White Pia)",
          "snow": 0,
          "prefecture": "岐阜県",
          "lat": 35.956,
          "lon": 136.935
        },
        {
          "name": "ウイングヒルズ白鳥 (Wing Hills)",
          "snow": 0,
          "prefecture": "岐阜県",
          "lat": 35.9672,
          "lon": 136.7906
        },
        {
          "name": "スノーウェーブパーク白鳥高原 (Shiratori Kogen)",
          "snow": 0,
          "prefecture": "岐阜県",
          "lat": 35.9397,
          "lon": 136.7864
        },
        {
          "name": "めいほうスキー場 (Meiho)",
          "snow": 0,
          "prefecture": "岐阜県",
          "lat": 35.9418,
          "lon": 137.043
        },
        {
          "name": "ほおのき平スキー場 (Honoki Daira)",
          "snow": 0,
          "prefecture": "岐阜県",
          "lat": 36.1436,
          "lon": 137.4528
        },
        {
          "name": "ひるがの高原スキー場 (Hirugano)",
          "snow": 0,
          "prefecture": "岐阜県",
          "lat": 35.985,
          "lon": 136.905
        },
        {
          "name": "飛騨流葉スキー場 (Hida Nagareha)",
          "snow": 0,
          "prefecture": "岐阜県",
          "lat": 36.3077,
          "lon": 137.2449
        },
        {
          "name": "スキージャム勝山 (Ski Jam Katsuyama)",
          "snow": 0,
          "prefecture": "福井県",
          "lat": 36.0733,
          "lon": 136.5556
        },
        {
          "name": "福井和泉スキー場 (Fukui Izumi)",
          "snow": 0,
          "prefecture": "福井県",
          "lat": 35.9397,
          "lon": 136.69208
        },
        {
          "name": "今庄365スキー場 (Imajo)",
          "snow": 0,
          "prefecture": "福井県",
          "lat": 35.755,
          "lon": 136.155
        },
        {
          "name": "白山セイモアスキー場 (Hakusan Seymour)",
          "snow": 0,
          "prefecture": "石川県",
          "lat": 36.3472,
          "lon": 136.6789
        },
        {
          "name": "白山一里野温泉スキー場 (Ichirino)",
          "snow": 0,
          "prefecture": "石川県",
          "lat": 36.2683,
          "lon": 136.715
        },
        {
          "name": "金沢市営医王山スキー場 (Iozen)",
          "snow": 0,
          "prefecture": "石川県",
          "lat": 36.48,
          "lon": 136.7
        },
        {
          "name": "立山山麓スキー場 (Tateyama Sanroku)",
          "snow": 0,
          "prefecture": "富山県",
          "lat": 36.5747,
          "lon": 137.417
        },
        {
          "name": "IOX-AROSA (イオックスアローザ)",
          "snow": 0,
          "prefecture": "富山県",
          "lat": 36.5149,
          "lon": 136.8209
        },
        {
          "name": "牛岳温泉スキー場 (Ushidake Onsen)",
          "snow": 0,
          "prefecture": "富山県",
          "lat": 36.5737,
          "lon": 137.057
        },
        {
          "name": "たいらスキー場 (Taira)",
          "snow": 0,
          "prefecture": "富山県",
          "lat": 36.45,
          "lon": 136.95
        },
        {
          "name": "びわ湖バレイ (Biwako Valley)",
          "snow": 0,
          "prefecture": "滋賀県",
          "lat": 35.203,
          "lon": 135.907
        },
        {
          "name": "グランスノー奥伊吹 (Okuibuki)",
          "snow": 0,
          "prefecture": "滋賀県",
          "lat": 35.522,
          "lon": 136.3872
        },
        {
          "name": "箱館山スキー場 (Hakodateyama)",
          "snow": 0,
          "prefecture": "滋賀県",
          "lat": 35.455,
          "lon": 136.035
        },
        {
          "name": "ハチ北高原スキー場 (Hachi Kita)",
          "snow": 0,
          "prefecture": "兵庫県",
          "lat": 35.4045,
          "lon": 134.558
        },
        {
          "name": "スカイバレースキー場 (Sky Valley)",
          "snow": 0,
          "prefecture": "兵庫県",
          "lat": 35.4489,
          "lon": 134.5458
        },
        {
          "name": "おじろスキー場 (Ojiro)",
          "snow": 0,
          "prefecture": "兵庫県",
          "lat": 35.425,
          "lon": 134.585
        },
        {
          "name": "ちくさ高原スキー場 (Chikusa)",
          "snow": 0,
          "prefecture": "兵庫県",
          "lat": 35.185,
          "lon": 134.455
        },
        {
          "name": "峰山高原リゾート (Mineyama)",
          "snow": 0,
          "prefecture": "兵庫県",
          "lat": 35.155,
          "lon": 134.705
        },
        {
          "name": "氷ノ山国際スキー場 (Hyonosen)",
          "snow": 0,
          "prefecture": "兵庫県",
          "lat": 35.355,
          "lon": 134.525
        },
        {
          "name": "恐羅漢スノーパーク (Osorakan)",
          "snow": 0,
          "prefecture": "広島県",
          "lat": 34.5957,
          "lon": 132.1466
        },
        {
          "name": "めがひらスキー場 (Megahira)",
          "snow": 0,
          "prefecture": "広島県",
          "lat": 34.4533,
          "lon": 132.1158
        },
        {
          "name": "芸北高原大佐スキー場 (Osa)",
          "snow": 0,
          "prefecture": "広島県",
          "lat": 34.7479,
          "lon": 132.2203
        },
        {
          "name": "ユートピアサイオト (Saioto)",
          "snow": 0,
          "prefecture": "広島県",
          "lat": 34.725,
          "lon": 132.355
        },
        {
          "name": "やわたハイランド191 (Yawata)",
          "snow": 0,
          "prefecture": "広島県",
          "lat": 34.6946,
          "lon": 132.16
        }
      ]
    },
    {
      "date": "2026-02-11",
      "display_date": "2/11 (水)",
      "rankings": [
        {
          "name": "めいほうスキー場 (Meiho)",
          "snow": 9.2,
          "prefecture": "岐阜県",
          "lat": 35.9418,
          "lon": 137.043
        },
        {
          "name": "車山高原SKYPARK (Kurumayama)",
          "snow": 8.3,
          "prefecture": "長野県",
          "lat": 36.105,
          "lon": 138.205
        },
        {
          "name": "高鷲スノーパーク (Takasu Snow Park)",
          "snow": 7.8,
          "prefecture": "岐阜県",
          "lat": 35.998,
          "lon": 136.8773
        },
        {
          "name": "ダイナランド (Dynaland)",
          "snow": 7.8,
          "prefecture": "岐阜県",
          "lat": 35.9967,
          "lon": 136.8606
        },
        {
          "name": "鷲ヶ岳スキー場 (Washigatake)",
          "snow": 7.8,
          "prefecture": "岐阜県",
          "lat": 35.9794,
          "lon": 136.8483
        },
        {
          "name": "ひるがの高原スキー場 (Hirugano)",
          "snow": 7.8,
          "prefecture": "岐阜県",
          "lat": 35.985,
          "lon": 136.905
        },
        {
          "name": "白馬八方尾根スキー場 (Hakuba Happo)",
          "snow": 6.6,
          "prefecture": "長野県",
          "lat": 36.7018,
          "lon": 137.8327
        },
        {
          "name": "Hakuba47",
          "snow": 6.6,
          "prefecture": "長野県",
          "lat": 36.685,
          "lon": 137.835
        },
        {
          "name": "白馬五竜スキー場 (Hakuba Goryu)",
          "snow": 5.6,
          "prefecture": "長野県",
          "lat": 36.6572,
          "lon": 137.8306
        },
        {
          "name": "志賀高原 焼額山 (Shiga Kogen)",
          "snow": 5.5,
          "prefecture": "長野県",
          "lat": 36.7621,
          "lon": 138.5367
        },
        {
          "name": "サンメドウズ清里 (Sun Meadows)",
          "snow": 5.2,
          "prefecture": "山梨県",
          "lat": 35.9381,
          "lon": 138.4069
        },
        {
          "name": "奥志賀高原スキー場 (Okushiga)",
          "snow": 4.8,
          "prefecture": "長野県",
          "lat": 36.78,
          "lon": 138.54
        },
        {
          "name": "栂池高原スキー場 (Tsugaike)",
          "snow": 4.6,
          "prefecture": "長野県",
          "lat": 36.7536,
          "lon": 137.8767
        },
        {
          "name": "戸隠スキー場 (Togakushi)",
          "snow": 4.5,
          "prefecture": "長野県",
          "lat": 36.765,
          "lon": 138.085
        },
        {
          "name": "白馬岩岳スノーフィールド (Iwatake)",
          "snow": 4.3,
          "prefecture": "長野県",
          "lat": 36.715,
          "lon": 137.865
        },
        {
          "name": "菅平高原スノーリゾート (Sugadaira)",
          "snow": 3.5,
          "prefecture": "長野県",
          "lat": 36.5414,
          "lon": 138.3581
        },
        {
          "name": "苗場スキー場 (Naeba)",
          "snow": 3.4,
          "prefecture": "新潟県",
          "lat": 36.7933,
          "lon": 138.7844
        },
        {
          "name": "かぐらスキー場 (Kagura)",
          "snow": 3,
          "prefecture": "新潟県",
          "lat": 36.8375,
          "lon": 138.7778
        },
        {
          "name": "奥利根スノーパーク (Okutone)",
          "snow": 2.7,
          "prefecture": "群馬県",
          "lat": 36.805,
          "lon": 139.005
        },
        {
          "name": "関温泉スキー場 (Seki Onsen)",
          "snow": 2.2,
          "prefecture": "新潟県",
          "lat": 36.895,
          "lon": 138.135
        },
        {
          "name": "ウイングヒルズ白鳥 (Wing Hills)",
          "snow": 1.1,
          "prefecture": "岐阜県",
          "lat": 35.9672,
          "lon": 136.7906
        },
        {
          "name": "スノーウェーブパーク白鳥高原 (Shiratori Kogen)",
          "snow": 1.1,
          "prefecture": "岐阜県",
          "lat": 35.9397,
          "lon": 136.7864
        },
        {
          "name": "白馬コルチナスキー場 (Cortina)",
          "snow": 1,
          "prefecture": "長野県",
          "lat": 36.785,
          "lon": 137.885
        },
        {
          "name": "白馬乗鞍温泉スキー場 (Norikura)",
          "snow": 1,
          "prefecture": "長野県",
          "lat": 36.775,
          "lon": 137.865
        },
        {
          "name": "ホワイトピアたかす (White Pia)",
          "snow": 0.4,
          "prefecture": "岐阜県",
          "lat": 35.956,
          "lon": 136.935
        },
        {
          "name": "ほおのき平スキー場 (Honoki Daira)",
          "snow": 0.4,
          "prefecture": "岐阜県",
          "lat": 36.1436,
          "lon": 137.4528
        },
        {
          "name": "飛騨流葉スキー場 (Hida Nagareha)",
          "snow": 0.1,
          "prefecture": "岐阜県",
          "lat": 36.3077,
          "lon": 137.2449
        },
        {
          "name": "GALA湯沢 (GALA Yuzawa)",
          "snow": 0,
          "prefecture": "新潟県",
          "lat": 36.9405,
          "lon": 138.7944
        },
        {
          "name": "石打丸山スキー場 (Ishiuchi)",
          "snow": 0,
          "prefecture": "新潟県",
          "lat": 36.9892,
          "lon": 138.8028
        },
        {
          "name": "ロッテアライリゾート (Lotte Arai)",
          "snow": 0,
          "prefecture": "新潟県",
          "lat": 36.99064,
          "lon": 138.18138
        },
        {
          "name": "妙高杉ノ原スキー場 (Myoko Suginohara)",
          "snow": 0,
          "prefecture": "新潟県",
          "lat": 36.8336,
          "lon": 138.1633
        },
        {
          "name": "舞子スノーリゾート (Maiko)",
          "snow": 0,
          "prefecture": "新潟県",
          "lat": 36.953,
          "lon": 138.835
        },
        {
          "name": "湯沢高原スキー場 (Yuzawa Kogen)",
          "snow": 0,
          "prefecture": "新潟県",
          "lat": 36.945,
          "lon": 138.805
        },
        {
          "name": "神立スノーリゾート (Kandatsu)",
          "snow": 0,
          "prefecture": "新潟県",
          "lat": 36.92,
          "lon": 138.835
        },
        {
          "name": "ムイカスノーリゾート (Muika)",
          "snow": 0,
          "prefecture": "新潟県",
          "lat": 37.055,
          "lon": 138.955
        },
        {
          "name": "シャルマン火打スキー場 (Charmant)",
          "snow": 0,
          "prefecture": "新潟県",
          "lat": 36.985,
          "lon": 138.055
        },
        {
          "name": "赤倉観光リゾート (Akakura)",
          "snow": 0,
          "prefecture": "新潟県",
          "lat": 36.885,
          "lon": 138.165
        },
        {
          "name": "上越国際スキー場 (Joetsu Kokusai)",
          "snow": 0,
          "prefecture": "新潟県",
          "lat": 37.015,
          "lon": 138.85
        },
        {
          "name": "キューピッドバレイスキー場 (Cupid Valley)",
          "snow": 0,
          "prefecture": "新潟県",
          "lat": 37.05513,
          "lon": 138.4845
        },
        {
          "name": "野沢温泉スキー場 (Nozawa Onsen)",
          "snow": 0,
          "prefecture": "長野県",
          "lat": 36.9197,
          "lon": 138.4485
        },
        {
          "name": "軽井沢プリンスホテルスキー場 (Karuizawa)",
          "snow": 0,
          "prefecture": "長野県",
          "lat": 36.3353,
          "lon": 138.6339
        },
        {
          "name": "竜王スキーパーク (Ryuoo)",
          "snow": 0,
          "prefecture": "長野県",
          "lat": 36.805,
          "lon": 138.455
        },
        {
          "name": "斑尾高原スキー場 (Madarao)",
          "snow": 0,
          "prefecture": "長野県",
          "lat": 36.845,
          "lon": 138.305
        },
        {
          "name": "タングラムスキーサーカス (Tangram)",
          "snow": 0,
          "prefecture": "長野県",
          "lat": 36.855,
          "lon": 138.285
        },
        {
          "name": "ふじてんスノーリゾート (Fujiten)",
          "snow": 0,
          "prefecture": "山梨県",
          "lat": 35.4328,
          "lon": 138.6947
        },
        {
          "name": "カムイみさかスキー場 (Misaka)",
          "snow": 0,
          "prefecture": "山梨県",
          "lat": 35.585,
          "lon": 138.655
        },
        {
          "name": "スキージャム勝山 (Ski Jam Katsuyama)",
          "snow": 0,
          "prefecture": "福井県",
          "lat": 36.0733,
          "lon": 136.5556
        },
        {
          "name": "福井和泉スキー場 (Fukui Izumi)",
          "snow": 0,
          "prefecture": "福井県",
          "lat": 35.9397,
          "lon": 136.69208
        },
        {
          "name": "今庄365スキー場 (Imajo)",
          "snow": 0,
          "prefecture": "福井県",
          "lat": 35.755,
          "lon": 136.155
        },
        {
          "name": "白山セイモアスキー場 (Hakusan Seymour)",
          "snow": 0,
          "prefecture": "石川県",
          "lat": 36.3472,
          "lon": 136.6789
        },
        {
          "name": "白山一里野温泉スキー場 (Ichirino)",
          "snow": 0,
          "prefecture": "石川県",
          "lat": 36.2683,
          "lon": 136.715
        },
        {
          "name": "金沢市営医王山スキー場 (Iozen)",
          "snow": 0,
          "prefecture": "石川県",
          "lat": 36.48,
          "lon": 136.7
        },
        {
          "name": "立山山麓スキー場 (Tateyama Sanroku)",
          "snow": 0,
          "prefecture": "富山県",
          "lat": 36.5747,
          "lon": 137.417
        },
        {
          "name": "IOX-AROSA (イオックスアローザ)",
          "snow": 0,
          "prefecture": "富山県",
          "lat": 36.5149,
          "lon": 136.8209
        },
        {
          "name": "牛岳温泉スキー場 (Ushidake Onsen)",
          "snow": 0,
          "prefecture": "富山県",
          "lat": 36.5737,
          "lon": 137.057
        },
        {
          "name": "たいらスキー場 (Taira)",
          "snow": 0,
          "prefecture": "富山県",
          "lat": 36.45,
          "lon": 136.95
        },
        {
          "name": "びわ湖バレイ (Biwako Valley)",
          "snow": 0,
          "prefecture": "滋賀県",
          "lat": 35.203,
          "lon": 135.907
        },
        {
          "name": "グランスノー奥伊吹 (Okuibuki)",
          "snow": 0,
          "prefecture": "滋賀県",
          "lat": 35.522,
          "lon": 136.3872
        },
        {
          "name": "箱館山スキー場 (Hakodateyama)",
          "snow": 0,
          "prefecture": "滋賀県",
          "lat": 35.455,
          "lon": 136.035
        },
        {
          "name": "ハチ北高原スキー場 (Hachi Kita)",
          "snow": 0,
          "prefecture": "兵庫県",
          "lat": 35.4045,
          "lon": 134.558
        },
        {
          "name": "スカイバレースキー場 (Sky Valley)",
          "snow": 0,
          "prefecture": "兵庫県",
          "lat": 35.4489,
          "lon": 134.5458
        },
        {
          "name": "おじろスキー場 (Ojiro)",
          "snow": 0,
          "prefecture": "兵庫県",
          "lat": 35.425,
          "lon": 134.585
        },
        {
          "name": "ちくさ高原スキー場 (Chikusa)",
          "snow": 0,
          "prefecture": "兵庫県",
          "lat": 35.185,
          "lon": 134.455
        },
        {
          "name": "峰山高原リゾート (Mineyama)",
          "snow": 0,
          "prefecture": "兵庫県",
          "lat": 35.155,
          "lon": 134.705
        },
        {
          "name": "氷ノ山国際スキー場 (Hyonosen)",
          "snow": 0,
          "prefecture": "兵庫県",
          "lat": 35.355,
          "lon": 134.525
        },
        {
          "name": "恐羅漢スノーパーク (Osorakan)",
          "snow": 0,
          "prefecture": "広島県",
          "lat": 34.5957,
          "lon": 132.1466
        },
        {
          "name": "めがひらスキー場 (Megahira)",
          "snow": 0,
          "prefecture": "広島県",
          "lat": 34.4533,
          "lon": 132.1158
        },
        {
          "name": "芸北高原大佐スキー場 (Osa)",
          "snow": 0,
          "prefecture": "広島県",
          "lat": 34.7479,
          "lon": 132.2203
        },
        {
          "name": "ユートピアサイオト (Saioto)",
          "snow": 0,
          "prefecture": "広島県",
          "lat": 34.725,
          "lon": 132.355
        },
        {
          "name": "やわたハイランド191 (Yawata)",
          "snow": 0,
          "prefecture": "広島県",
          "lat": 34.6946,
          "lon": 132.16
        }
      ]
    },
    {
      "date": "2026-02-12",
      "display_date": "2/12 (木)",
      "rankings": [
        {
          "name": "シャルマン火打スキー場 (Charmant)",
          "snow": 11.1,
          "prefecture": "新潟県",
          "lat": 36.985,
          "lon": 138.055
        },
        {
          "name": "立山山麓スキー場 (Tateyama Sanroku)",
          "snow": 10.9,
          "prefecture": "富山県",
          "lat": 36.5747,
          "lon": 137.417
        },
        {
          "name": "関温泉スキー場 (Seki Onsen)",
          "snow": 8.5,
          "prefecture": "新潟県",
          "lat": 36.895,
          "lon": 138.135
        },
        {
          "name": "かぐらスキー場 (Kagura)",
          "snow": 8.3,
          "prefecture": "新潟県",
          "lat": 36.8375,
          "lon": 138.7778
        },
        {
          "name": "神立スノーリゾート (Kandatsu)",
          "snow": 8.1,
          "prefecture": "新潟県",
          "lat": 36.92,
          "lon": 138.835
        },
        {
          "name": "野沢温泉スキー場 (Nozawa Onsen)",
          "snow": 7.3,
          "prefecture": "長野県",
          "lat": 36.9197,
          "lon": 138.4485
        },
        {
          "name": "赤倉観光リゾート (Akakura)",
          "snow": 6.9,
          "prefecture": "新潟県",
          "lat": 36.885,
          "lon": 138.165
        },
        {
          "name": "白山一里野温泉スキー場 (Ichirino)",
          "snow": 6.9,
          "prefecture": "石川県",
          "lat": 36.2683,
          "lon": 136.715
        },
        {
          "name": "白馬コルチナスキー場 (Cortina)",
          "snow": 6.4,
          "prefecture": "長野県",
          "lat": 36.785,
          "lon": 137.885
        },
        {
          "name": "白馬乗鞍温泉スキー場 (Norikura)",
          "snow": 6.4,
          "prefecture": "長野県",
          "lat": 36.775,
          "lon": 137.865
        },
        {
          "name": "苗場スキー場 (Naeba)",
          "snow": 6.2,
          "prefecture": "新潟県",
          "lat": 36.7933,
          "lon": 138.7844
        },
        {
          "name": "奥志賀高原スキー場 (Okushiga)",
          "snow": 5.3,
          "prefecture": "長野県",
          "lat": 36.78,
          "lon": 138.54
        },
        {
          "name": "妙高杉ノ原スキー場 (Myoko Suginohara)",
          "snow": 5,
          "prefecture": "新潟県",
          "lat": 36.8336,
          "lon": 138.1633
        },
        {
          "name": "竜王スキーパーク (Ryuoo)",
          "snow": 4.4,
          "prefecture": "長野県",
          "lat": 36.805,
          "lon": 138.455
        },
        {
          "name": "GALA湯沢 (GALA Yuzawa)",
          "snow": 3.6,
          "prefecture": "新潟県",
          "lat": 36.9405,
          "lon": 138.7944
        },
        {
          "name": "舞子スノーリゾート (Maiko)",
          "snow": 3.6,
          "prefecture": "新潟県",
          "lat": 36.953,
          "lon": 138.835
        },
        {
          "name": "湯沢高原スキー場 (Yuzawa Kogen)",
          "snow": 3.6,
          "prefecture": "新潟県",
          "lat": 36.945,
          "lon": 138.805
        },
        {
          "name": "栂池高原スキー場 (Tsugaike)",
          "snow": 3.3,
          "prefecture": "長野県",
          "lat": 36.7536,
          "lon": 137.8767
        },
        {
          "name": "志賀高原 焼額山 (Shiga Kogen)",
          "snow": 3.2,
          "prefecture": "長野県",
          "lat": 36.7621,
          "lon": 138.5367
        },
        {
          "name": "奥利根スノーパーク (Okutone)",
          "snow": 3,
          "prefecture": "群馬県",
          "lat": 36.805,
          "lon": 139.005
        },
        {
          "name": "白馬八方尾根スキー場 (Hakuba Happo)",
          "snow": 2.7,
          "prefecture": "長野県",
          "lat": 36.7018,
          "lon": 137.8327
        },
        {
          "name": "Hakuba47",
          "snow": 2.7,
          "prefecture": "長野県",
          "lat": 36.685,
          "lon": 137.835
        },
        {
          "name": "白馬五竜スキー場 (Hakuba Goryu)",
          "snow": 2.3,
          "prefecture": "長野県",
          "lat": 36.6572,
          "lon": 137.8306
        },
        {
          "name": "菅平高原スノーリゾート (Sugadaira)",
          "snow": 2,
          "prefecture": "長野県",
          "lat": 36.5414,
          "lon": 138.3581
        },
        {
          "name": "飛騨流葉スキー場 (Hida Nagareha)",
          "snow": 1.8,
          "prefecture": "岐阜県",
          "lat": 36.3077,
          "lon": 137.2449
        },
        {
          "name": "たいらスキー場 (Taira)",
          "snow": 1.8,
          "prefecture": "富山県",
          "lat": 36.45,
          "lon": 136.95
        },
        {
          "name": "ムイカスノーリゾート (Muika)",
          "snow": 1.7,
          "prefecture": "新潟県",
          "lat": 37.055,
          "lon": 138.955
        },
        {
          "name": "戸隠スキー場 (Togakushi)",
          "snow": 1.7,
          "prefecture": "長野県",
          "lat": 36.765,
          "lon": 138.085
        },
        {
          "name": "ほおのき平スキー場 (Honoki Daira)",
          "snow": 1.5,
          "prefecture": "岐阜県",
          "lat": 36.1436,
          "lon": 137.4528
        },
        {
          "name": "白馬岩岳スノーフィールド (Iwatake)",
          "snow": 1.4,
          "prefecture": "長野県",
          "lat": 36.715,
          "lon": 137.865
        },
        {
          "name": "上越国際スキー場 (Joetsu Kokusai)",
          "snow": 1.3,
          "prefecture": "新潟県",
          "lat": 37.015,
          "lon": 138.85
        },
        {
          "name": "白山セイモアスキー場 (Hakusan Seymour)",
          "snow": 1.1,
          "prefecture": "石川県",
          "lat": 36.3472,
          "lon": 136.6789
        },
        {
          "name": "斑尾高原スキー場 (Madarao)",
          "snow": 0.7,
          "prefecture": "長野県",
          "lat": 36.845,
          "lon": 138.305
        },
        {
          "name": "タングラムスキーサーカス (Tangram)",
          "snow": 0.7,
          "prefecture": "長野県",
          "lat": 36.855,
          "lon": 138.285
        },
        {
          "name": "サンメドウズ清里 (Sun Meadows)",
          "snow": 0.4,
          "prefecture": "山梨県",
          "lat": 35.9381,
          "lon": 138.4069
        },
        {
          "name": "車山高原SKYPARK (Kurumayama)",
          "snow": 0.1,
          "prefecture": "長野県",
          "lat": 36.105,
          "lon": 138.205
        },
        {
          "name": "高鷲スノーパーク (Takasu Snow Park)",
          "snow": 0.1,
          "prefecture": "岐阜県",
          "lat": 35.998,
          "lon": 136.8773
        },
        {
          "name": "ダイナランド (Dynaland)",
          "snow": 0.1,
          "prefecture": "岐阜県",
          "lat": 35.9967,
          "lon": 136.8606
        },
        {
          "name": "鷲ヶ岳スキー場 (Washigatake)",
          "snow": 0.1,
          "prefecture": "岐阜県",
          "lat": 35.9794,
          "lon": 136.8483
        },
        {
          "name": "ホワイトピアたかす (White Pia)",
          "snow": 0.1,
          "prefecture": "岐阜県",
          "lat": 35.956,
          "lon": 136.935
        },
        {
          "name": "めいほうスキー場 (Meiho)",
          "snow": 0.1,
          "prefecture": "岐阜県",
          "lat": 35.9418,
          "lon": 137.043
        },
        {
          "name": "ひるがの高原スキー場 (Hirugano)",
          "snow": 0.1,
          "prefecture": "岐阜県",
          "lat": 35.985,
          "lon": 136.905
        },
        {
          "name": "石打丸山スキー場 (Ishiuchi)",
          "snow": 0,
          "prefecture": "新潟県",
          "lat": 36.9892,
          "lon": 138.8028
        },
        {
          "name": "ロッテアライリゾート (Lotte Arai)",
          "snow": 0,
          "prefecture": "新潟県",
          "lat": 36.99064,
          "lon": 138.18138
        },
        {
          "name": "キューピッドバレイスキー場 (Cupid Valley)",
          "snow": 0,
          "prefecture": "新潟県",
          "lat": 37.05513,
          "lon": 138.4845
        },
        {
          "name": "軽井沢プリンスホテルスキー場 (Karuizawa)",
          "snow": 0,
          "prefecture": "長野県",
          "lat": 36.3353,
          "lon": 138.6339
        },
        {
          "name": "ふじてんスノーリゾート (Fujiten)",
          "snow": 0,
          "prefecture": "山梨県",
          "lat": 35.4328,
          "lon": 138.6947
        },
        {
          "name": "カムイみさかスキー場 (Misaka)",
          "snow": 0,
          "prefecture": "山梨県",
          "lat": 35.585,
          "lon": 138.655
        },
        {
          "name": "ウイングヒルズ白鳥 (Wing Hills)",
          "snow": 0,
          "prefecture": "岐阜県",
          "lat": 35.9672,
          "lon": 136.7906
        },
        {
          "name": "スノーウェーブパーク白鳥高原 (Shiratori Kogen)",
          "snow": 0,
          "prefecture": "岐阜県",
          "lat": 35.9397,
          "lon": 136.7864
        },
        {
          "name": "スキージャム勝山 (Ski Jam Katsuyama)",
          "snow": 0,
          "prefecture": "福井県",
          "lat": 36.0733,
          "lon": 136.5556
        },
        {
          "name": "福井和泉スキー場 (Fukui Izumi)",
          "snow": 0,
          "prefecture": "福井県",
          "lat": 35.9397,
          "lon": 136.69208
        },
        {
          "name": "今庄365スキー場 (Imajo)",
          "snow": 0,
          "prefecture": "福井県",
          "lat": 35.755,
          "lon": 136.155
        },
        {
          "name": "金沢市営医王山スキー場 (Iozen)",
          "snow": 0,
          "prefecture": "石川県",
          "lat": 36.48,
          "lon": 136.7
        },
        {
          "name": "IOX-AROSA (イオックスアローザ)",
          "snow": 0,
          "prefecture": "富山県",
          "lat": 36.5149,
          "lon": 136.8209
        },
        {
          "name": "牛岳温泉スキー場 (Ushidake Onsen)",
          "snow": 0,
          "prefecture": "富山県",
          "lat": 36.5737,
          "lon": 137.057
        },
        {
          "name": "びわ湖バレイ (Biwako Valley)",
          "snow": 0,
          "prefecture": "滋賀県",
          "lat": 35.203,
          "lon": 135.907
        },
        {
          "name": "グランスノー奥伊吹 (Okuibuki)",
          "snow": 0,
          "prefecture": "滋賀県",
          "lat": 35.522,
          "lon": 136.3872
        },
        {
          "name": "箱館山スキー場 (Hakodateyama)",
          "snow": 0,
          "prefecture": "滋賀県",
          "lat": 35.455,
          "lon": 136.035
        },
        {
          "name": "ハチ北高原スキー場 (Hachi Kita)",
          "snow": 0,
          "prefecture": "兵庫県",
          "lat": 35.4045,
          "lon": 134.558
        },
        {
          "name": "スカイバレースキー場 (Sky Valley)",
          "snow": 0,
          "prefecture": "兵庫県",
          "lat": 35.4489,
          "lon": 134.5458
        },
        {
          "name": "おじろスキー場 (Ojiro)",
          "snow": 0,
          "prefecture": "兵庫県",
          "lat": 35.425,
          "lon": 134.585
        },
        {
          "name": "ちくさ高原スキー場 (Chikusa)",
          "snow": 0,
          "prefecture": "兵庫県",
          "lat": 35.185,
          "lon": 134.455
        },
        {
          "name": "峰山高原リゾート (Mineyama)",
          "snow": 0,
          "prefecture": "兵庫県",
          "lat": 35.155,
          "lon": 134.705
        },
        {
          "name": "氷ノ山国際スキー場 (Hyonosen)",
          "snow": 0,
          "prefecture": "兵庫県",
          "lat": 35.355,
          "lon": 134.525
        },
        {
          "name": "恐羅漢スノーパーク (Osorakan)",
          "snow": 0,
          "prefecture": "広島県",
          "lat": 34.5957,
          "lon": 132.1466
        },
        {
          "name": "めがひらスキー場 (Megahira)",
          "snow": 0,
          "prefecture": "広島県",
          "lat": 34.4533,
          "lon": 132.1158
        },
        {
          "name": "芸北高原大佐スキー場 (Osa)",
          "snow": 0,
          "prefecture": "広島県",
          "lat": 34.7479,
          "lon": 132.2203
        },
        {
          "name": "ユートピアサイオト (Saioto)",
          "snow": 0,
          "prefecture": "広島県",
          "lat": 34.725,
          "lon": 132.355
        },
        {
          "name": "やわたハイランド191 (Yawata)",
          "snow": 0,
          "prefecture": "広島県",
          "lat": 34.6946,
          "lon": 132.16
        }
      ]
    },
    {
      "date": "2026-02-13",
      "display_date": "2/13 (金)",
      "rankings": [
        {
          "name": "奥利根スノーパーク (Okutone)",
          "snow": 0,
          "prefecture": "群馬県",
          "lat": 36.805,
          "lon": 139.005
        },
        {
          "name": "苗場スキー場 (Naeba)",
          "snow": 0,
          "prefecture": "新潟県",
          "lat": 36.7933,
          "lon": 138.7844
        },
        {
          "name": "かぐらスキー場 (Kagura)",
          "snow": 0,
          "prefecture": "新潟県",
          "lat": 36.8375,
          "lon": 138.7778
        },
        {
          "name": "GALA湯沢 (GALA Yuzawa)",
          "snow": 0,
          "prefecture": "新潟県",
          "lat": 36.9405,
          "lon": 138.7944
        },
        {
          "name": "石打丸山スキー場 (Ishiuchi)",
          "snow": 0,
          "prefecture": "新潟県",
          "lat": 36.9892,
          "lon": 138.8028
        },
        {
          "name": "ロッテアライリゾート (Lotte Arai)",
          "snow": 0,
          "prefecture": "新潟県",
          "lat": 36.99064,
          "lon": 138.18138
        },
        {
          "name": "妙高杉ノ原スキー場 (Myoko Suginohara)",
          "snow": 0,
          "prefecture": "新潟県",
          "lat": 36.8336,
          "lon": 138.1633
        },
        {
          "name": "舞子スノーリゾート (Maiko)",
          "snow": 0,
          "prefecture": "新潟県",
          "lat": 36.953,
          "lon": 138.835
        },
        {
          "name": "湯沢高原スキー場 (Yuzawa Kogen)",
          "snow": 0,
          "prefecture": "新潟県",
          "lat": 36.945,
          "lon": 138.805
        },
        {
          "name": "神立スノーリゾート (Kandatsu)",
          "snow": 0,
          "prefecture": "新潟県",
          "lat": 36.92,
          "lon": 138.835
        },
        {
          "name": "ムイカスノーリゾート (Muika)",
          "snow": 0,
          "prefecture": "新潟県",
          "lat": 37.055,
          "lon": 138.955
        },
        {
          "name": "シャルマン火打スキー場 (Charmant)",
          "snow": 0,
          "prefecture": "新潟県",
          "lat": 36.985,
          "lon": 138.055
        },
        {
          "name": "赤倉観光リゾート (Akakura)",
          "snow": 0,
          "prefecture": "新潟県",
          "lat": 36.885,
          "lon": 138.165
        },
        {
          "name": "関温泉スキー場 (Seki Onsen)",
          "snow": 0,
          "prefecture": "新潟県",
          "lat": 36.895,
          "lon": 138.135
        },
        {
          "name": "上越国際スキー場 (Joetsu Kokusai)",
          "snow": 0,
          "prefecture": "新潟県",
          "lat": 37.015,
          "lon": 138.85
        },
        {
          "name": "キューピッドバレイスキー場 (Cupid Valley)",
          "snow": 0,
          "prefecture": "新潟県",
          "lat": 37.05513,
          "lon": 138.4845
        },
        {
          "name": "白馬八方尾根スキー場 (Hakuba Happo)",
          "snow": 0,
          "prefecture": "長野県",
          "lat": 36.7018,
          "lon": 137.8327
        },
        {
          "name": "白馬五竜スキー場 (Hakuba Goryu)",
          "snow": 0,
          "prefecture": "長野県",
          "lat": 36.6572,
          "lon": 137.8306
        },
        {
          "name": "栂池高原スキー場 (Tsugaike)",
          "snow": 0,
          "prefecture": "長野県",
          "lat": 36.7536,
          "lon": 137.8767
        },
        {
          "name": "野沢温泉スキー場 (Nozawa Onsen)",
          "snow": 0,
          "prefecture": "長野県",
          "lat": 36.9197,
          "lon": 138.4485
        },
        {
          "name": "志賀高原 焼額山 (Shiga Kogen)",
          "snow": 0,
          "prefecture": "長野県",
          "lat": 36.7621,
          "lon": 138.5367
        },
        {
          "name": "菅平高原スノーリゾート (Sugadaira)",
          "snow": 0,
          "prefecture": "長野県",
          "lat": 36.5414,
          "lon": 138.3581
        },
        {
          "name": "軽井沢プリンスホテルスキー場 (Karuizawa)",
          "snow": 0,
          "prefecture": "長野県",
          "lat": 36.3353,
          "lon": 138.6339
        },
        {
          "name": "白馬コルチナスキー場 (Cortina)",
          "snow": 0,
          "prefecture": "長野県",
          "lat": 36.785,
          "lon": 137.885
        },
        {
          "name": "白馬乗鞍温泉スキー場 (Norikura)",
          "snow": 0,
          "prefecture": "長野県",
          "lat": 36.775,
          "lon": 137.865
        },
        {
          "name": "白馬岩岳スノーフィールド (Iwatake)",
          "snow": 0,
          "prefecture": "長野県",
          "lat": 36.715,
          "lon": 137.865
        },
        {
          "name": "Hakuba47",
          "snow": 0,
          "prefecture": "長野県",
          "lat": 36.685,
          "lon": 137.835
        },
        {
          "name": "竜王スキーパーク (Ryuoo)",
          "snow": 0,
          "prefecture": "長野県",
          "lat": 36.805,
          "lon": 138.455
        },
        {
          "name": "斑尾高原スキー場 (Madarao)",
          "snow": 0,
          "prefecture": "長野県",
          "lat": 36.845,
          "lon": 138.305
        },
        {
          "name": "タングラムスキーサーカス (Tangram)",
          "snow": 0,
          "prefecture": "長野県",
          "lat": 36.855,
          "lon": 138.285
        },
        {
          "name": "戸隠スキー場 (Togakushi)",
          "snow": 0,
          "prefecture": "長野県",
          "lat": 36.765,
          "lon": 138.085
        },
        {
          "name": "車山高原SKYPARK (Kurumayama)",
          "snow": 0,
          "prefecture": "長野県",
          "lat": 36.105,
          "lon": 138.205
        },
        {
          "name": "奥志賀高原スキー場 (Okushiga)",
          "snow": 0,
          "prefecture": "長野県",
          "lat": 36.78,
          "lon": 138.54
        },
        {
          "name": "ふじてんスノーリゾート (Fujiten)",
          "snow": 0,
          "prefecture": "山梨県",
          "lat": 35.4328,
          "lon": 138.6947
        },
        {
          "name": "サンメドウズ清里 (Sun Meadows)",
          "snow": 0,
          "prefecture": "山梨県",
          "lat": 35.9381,
          "lon": 138.4069
        },
        {
          "name": "カムイみさかスキー場 (Misaka)",
          "snow": 0,
          "prefecture": "山梨県",
          "lat": 35.585,
          "lon": 138.655
        },
        {
          "name": "高鷲スノーパーク (Takasu Snow Park)",
          "snow": 0,
          "prefecture": "岐阜県",
          "lat": 35.998,
          "lon": 136.8773
        },
        {
          "name": "ダイナランド (Dynaland)",
          "snow": 0,
          "prefecture": "岐阜県",
          "lat": 35.9967,
          "lon": 136.8606
        },
        {
          "name": "鷲ヶ岳スキー場 (Washigatake)",
          "snow": 0,
          "prefecture": "岐阜県",
          "lat": 35.9794,
          "lon": 136.8483
        },
        {
          "name": "ホワイトピアたかす (White Pia)",
          "snow": 0,
          "prefecture": "岐阜県",
          "lat": 35.956,
          "lon": 136.935
        },
        {
          "name": "ウイングヒルズ白鳥 (Wing Hills)",
          "snow": 0,
          "prefecture": "岐阜県",
          "lat": 35.9672,
          "lon": 136.7906
        },
        {
          "name": "スノーウェーブパーク白鳥高原 (Shiratori Kogen)",
          "snow": 0,
          "prefecture": "岐阜県",
          "lat": 35.9397,
          "lon": 136.7864
        },
        {
          "name": "めいほうスキー場 (Meiho)",
          "snow": 0,
          "prefecture": "岐阜県",
          "lat": 35.9418,
          "lon": 137.043
        },
        {
          "name": "ほおのき平スキー場 (Honoki Daira)",
          "snow": 0,
          "prefecture": "岐阜県",
          "lat": 36.1436,
          "lon": 137.4528
        },
        {
          "name": "ひるがの高原スキー場 (Hirugano)",
          "snow": 0,
          "prefecture": "岐阜県",
          "lat": 35.985,
          "lon": 136.905
        },
        {
          "name": "飛騨流葉スキー場 (Hida Nagareha)",
          "snow": 0,
          "prefecture": "岐阜県",
          "lat": 36.3077,
          "lon": 137.2449
        },
        {
          "name": "スキージャム勝山 (Ski Jam Katsuyama)",
          "snow": 0,
          "prefecture": "福井県",
          "lat": 36.0733,
          "lon": 136.5556
        },
        {
          "name": "福井和泉スキー場 (Fukui Izumi)",
          "snow": 0,
          "prefecture": "福井県",
          "lat": 35.9397,
          "lon": 136.69208
        },
        {
          "name": "今庄365スキー場 (Imajo)",
          "snow": 0,
          "prefecture": "福井県",
          "lat": 35.755,
          "lon": 136.155
        },
        {
          "name": "白山セイモアスキー場 (Hakusan Seymour)",
          "snow": 0,
          "prefecture": "石川県",
          "lat": 36.3472,
          "lon": 136.6789
        },
        {
          "name": "白山一里野温泉スキー場 (Ichirino)",
          "snow": 0,
          "prefecture": "石川県",
          "lat": 36.2683,
          "lon": 136.715
        },
        {
          "name": "金沢市営医王山スキー場 (Iozen)",
          "snow": 0,
          "prefecture": "石川県",
          "lat": 36.48,
          "lon": 136.7
        },
        {
          "name": "立山山麓スキー場 (Tateyama Sanroku)",
          "snow": 0,
          "prefecture": "富山県",
          "lat": 36.5747,
          "lon": 137.417
        },
        {
          "name": "IOX-AROSA (イオックスアローザ)",
          "snow": 0,
          "prefecture": "富山県",
          "lat": 36.5149,
          "lon": 136.8209
        },
        {
          "name": "牛岳温泉スキー場 (Ushidake Onsen)",
          "snow": 0,
          "prefecture": "富山県",
          "lat": 36.5737,
          "lon": 137.057
        },
        {
          "name": "たいらスキー場 (Taira)",
          "snow": 0,
          "prefecture": "富山県",
          "lat": 36.45,
          "lon": 136.95
        },
        {
          "name": "びわ湖バレイ (Biwako Valley)",
          "snow": 0,
          "prefecture": "滋賀県",
          "lat": 35.203,
          "lon": 135.907
        },
        {
          "name": "グランスノー奥伊吹 (Okuibuki)",
          "snow": 0,
          "prefecture": "滋賀県",
          "lat": 35.522,
          "lon": 136.3872
        },
        {
          "name": "箱館山スキー場 (Hakodateyama)",
          "snow": 0,
          "prefecture": "滋賀県",
          "lat": 35.455,
          "lon": 136.035
        },
        {
          "name": "ハチ北高原スキー場 (Hachi Kita)",
          "snow": 0,
          "prefecture": "兵庫県",
          "lat": 35.4045,
          "lon": 134.558
        },
        {
          "name": "スカイバレースキー場 (Sky Valley)",
          "snow": 0,
          "prefecture": "兵庫県",
          "lat": 35.4489,
          "lon": 134.5458
        },
        {
          "name": "おじろスキー場 (Ojiro)",
          "snow": 0,
          "prefecture": "兵庫県",
          "lat": 35.425,
          "lon": 134.585
        },
        {
          "name": "ちくさ高原スキー場 (Chikusa)",
          "snow": 0,
          "prefecture": "兵庫県",
          "lat": 35.185,
          "lon": 134.455
        },
        {
          "name": "峰山高原リゾート (Mineyama)",
          "snow": 0,
          "prefecture": "兵庫県",
          "lat": 35.155,
          "lon": 134.705
        },
        {
          "name": "氷ノ山国際スキー場 (Hyonosen)",
          "snow": 0,
          "prefecture": "兵庫県",
          "lat": 35.355,
          "lon": 134.525
        },
        {
          "name": "恐羅漢スノーパーク (Osorakan)",
          "snow": 0,
          "prefecture": "広島県",
          "lat": 34.5957,
          "lon": 132.1466
        },
        {
          "name": "めがひらスキー場 (Megahira)",
          "snow": 0,
          "prefecture": "広島県",
          "lat": 34.4533,
          "lon": 132.1158
        },
        {
          "name": "芸北高原大佐スキー場 (Osa)",
          "snow": 0,
          "prefecture": "広島県",
          "lat": 34.7479,
          "lon": 132.2203
        },
        {
          "name": "ユートピアサイオト (Saioto)",
          "snow": 0,
          "prefecture": "広島県",
          "lat": 34.725,
          "lon": 132.355
        },
        {
          "name": "やわたハイランド191 (Yawata)",
          "snow": 0,
          "prefecture": "広島県",
          "lat": 34.6946,
          "lon": 132.16
        }
      ]
    },
    {
      "date": "2026-02-14",
      "display_date": "2/14 (土)",
      "rankings": [
        {
          "name": "奥利根スノーパーク (Okutone)",
          "snow": 0,
          "prefecture": "群馬県",
          "lat": 36.805,
          "lon": 139.005
        },
        {
          "name": "苗場スキー場 (Naeba)",
          "snow": 0,
          "prefecture": "新潟県",
          "lat": 36.7933,
          "lon": 138.7844
        },
        {
          "name": "かぐらスキー場 (Kagura)",
          "snow": 0,
          "prefecture": "新潟県",
          "lat": 36.8375,
          "lon": 138.7778
        },
        {
          "name": "GALA湯沢 (GALA Yuzawa)",
          "snow": 0,
          "prefecture": "新潟県",
          "lat": 36.9405,
          "lon": 138.7944
        },
        {
          "name": "石打丸山スキー場 (Ishiuchi)",
          "snow": 0,
          "prefecture": "新潟県",
          "lat": 36.9892,
          "lon": 138.8028
        },
        {
          "name": "ロッテアライリゾート (Lotte Arai)",
          "snow": 0,
          "prefecture": "新潟県",
          "lat": 36.99064,
          "lon": 138.18138
        },
        {
          "name": "妙高杉ノ原スキー場 (Myoko Suginohara)",
          "snow": 0,
          "prefecture": "新潟県",
          "lat": 36.8336,
          "lon": 138.1633
        },
        {
          "name": "舞子スノーリゾート (Maiko)",
          "snow": 0,
          "prefecture": "新潟県",
          "lat": 36.953,
          "lon": 138.835
        },
        {
          "name": "湯沢高原スキー場 (Yuzawa Kogen)",
          "snow": 0,
          "prefecture": "新潟県",
          "lat": 36.945,
          "lon": 138.805
        },
        {
          "name": "神立スノーリゾート (Kandatsu)",
          "snow": 0,
          "prefecture": "新潟県",
          "lat": 36.92,
          "lon": 138.835
        },
        {
          "name": "ムイカスノーリゾート (Muika)",
          "snow": 0,
          "prefecture": "新潟県",
          "lat": 37.055,
          "lon": 138.955
        },
        {
          "name": "シャルマン火打スキー場 (Charmant)",
          "snow": 0,
          "prefecture": "新潟県",
          "lat": 36.985,
          "lon": 138.055
        },
        {
          "name": "赤倉観光リゾート (Akakura)",
          "snow": 0,
          "prefecture": "新潟県",
          "lat": 36.885,
          "lon": 138.165
        },
        {
          "name": "関温泉スキー場 (Seki Onsen)",
          "snow": 0,
          "prefecture": "新潟県",
          "lat": 36.895,
          "lon": 138.135
        },
        {
          "name": "上越国際スキー場 (Joetsu Kokusai)",
          "snow": 0,
          "prefecture": "新潟県",
          "lat": 37.015,
          "lon": 138.85
        },
        {
          "name": "キューピッドバレイスキー場 (Cupid Valley)",
          "snow": 0,
          "prefecture": "新潟県",
          "lat": 37.05513,
          "lon": 138.4845
        },
        {
          "name": "白馬八方尾根スキー場 (Hakuba Happo)",
          "snow": 0,
          "prefecture": "長野県",
          "lat": 36.7018,
          "lon": 137.8327
        },
        {
          "name": "白馬五竜スキー場 (Hakuba Goryu)",
          "snow": 0,
          "prefecture": "長野県",
          "lat": 36.6572,
          "lon": 137.8306
        },
        {
          "name": "栂池高原スキー場 (Tsugaike)",
          "snow": 0,
          "prefecture": "長野県",
          "lat": 36.7536,
          "lon": 137.8767
        },
        {
          "name": "野沢温泉スキー場 (Nozawa Onsen)",
          "snow": 0,
          "prefecture": "長野県",
          "lat": 36.9197,
          "lon": 138.4485
        },
        {
          "name": "志賀高原 焼額山 (Shiga Kogen)",
          "snow": 0,
          "prefecture": "長野県",
          "lat": 36.7621,
          "lon": 138.5367
        },
        {
          "name": "菅平高原スノーリゾート (Sugadaira)",
          "snow": 0,
          "prefecture": "長野県",
          "lat": 36.5414,
          "lon": 138.3581
        },
        {
          "name": "軽井沢プリンスホテルスキー場 (Karuizawa)",
          "snow": 0,
          "prefecture": "長野県",
          "lat": 36.3353,
          "lon": 138.6339
        },
        {
          "name": "白馬コルチナスキー場 (Cortina)",
          "snow": 0,
          "prefecture": "長野県",
          "lat": 36.785,
          "lon": 137.885
        },
        {
          "name": "白馬乗鞍温泉スキー場 (Norikura)",
          "snow": 0,
          "prefecture": "長野県",
          "lat": 36.775,
          "lon": 137.865
        },
        {
          "name": "白馬岩岳スノーフィールド (Iwatake)",
          "snow": 0,
          "prefecture": "長野県",
          "lat": 36.715,
          "lon": 137.865
        },
        {
          "name": "Hakuba47",
          "snow": 0,
          "prefecture": "長野県",
          "lat": 36.685,
          "lon": 137.835
        },
        {
          "name": "竜王スキーパーク (Ryuoo)",
          "snow": 0,
          "prefecture": "長野県",
          "lat": 36.805,
          "lon": 138.455
        },
        {
          "name": "斑尾高原スキー場 (Madarao)",
          "snow": 0,
          "prefecture": "長野県",
          "lat": 36.845,
          "lon": 138.305
        },
        {
          "name": "タングラムスキーサーカス (Tangram)",
          "snow": 0,
          "prefecture": "長野県",
          "lat": 36.855,
          "lon": 138.285
        },
        {
          "name": "戸隠スキー場 (Togakushi)",
          "snow": 0,
          "prefecture": "長野県",
          "lat": 36.765,
          "lon": 138.085
        },
        {
          "name": "車山高原SKYPARK (Kurumayama)",
          "snow": 0,
          "prefecture": "長野県",
          "lat": 36.105,
          "lon": 138.205
        },
        {
          "name": "奥志賀高原スキー場 (Okushiga)",
          "snow": 0,
          "prefecture": "長野県",
          "lat": 36.78,
          "lon": 138.54
        },
        {
          "name": "ふじてんスノーリゾート (Fujiten)",
          "snow": 0,
          "prefecture": "山梨県",
          "lat": 35.4328,
          "lon": 138.6947
        },
        {
          "name": "サンメドウズ清里 (Sun Meadows)",
          "snow": 0,
          "prefecture": "山梨県",
          "lat": 35.9381,
          "lon": 138.4069
        },
        {
          "name": "カムイみさかスキー場 (Misaka)",
          "snow": 0,
          "prefecture": "山梨県",
          "lat": 35.585,
          "lon": 138.655
        },
        {
          "name": "高鷲スノーパーク (Takasu Snow Park)",
          "snow": 0,
          "prefecture": "岐阜県",
          "lat": 35.998,
          "lon": 136.8773
        },
        {
          "name": "ダイナランド (Dynaland)",
          "snow": 0,
          "prefecture": "岐阜県",
          "lat": 35.9967,
          "lon": 136.8606
        },
        {
          "name": "鷲ヶ岳スキー場 (Washigatake)",
          "snow": 0,
          "prefecture": "岐阜県",
          "lat": 35.9794,
          "lon": 136.8483
        },
        {
          "name": "ホワイトピアたかす (White Pia)",
          "snow": 0,
          "prefecture": "岐阜県",
          "lat": 35.956,
          "lon": 136.935
        },
        {
          "name": "ウイングヒルズ白鳥 (Wing Hills)",
          "snow": 0,
          "prefecture": "岐阜県",
          "lat": 35.9672,
          "lon": 136.7906
        },
        {
          "name": "スノーウェーブパーク白鳥高原 (Shiratori Kogen)",
          "snow": 0,
          "prefecture": "岐阜県",
          "lat": 35.9397,
          "lon": 136.7864
        },
        {
          "name": "めいほうスキー場 (Meiho)",
          "snow": 0,
          "prefecture": "岐阜県",
          "lat": 35.9418,
          "lon": 137.043
        },
        {
          "name": "ほおのき平スキー場 (Honoki Daira)",
          "snow": 0,
          "prefecture": "岐阜県",
          "lat": 36.1436,
          "lon": 137.4528
        },
        {
          "name": "ひるがの高原スキー場 (Hirugano)",
          "snow": 0,
          "prefecture": "岐阜県",
          "lat": 35.985,
          "lon": 136.905
        },
        {
          "name": "飛騨流葉スキー場 (Hida Nagareha)",
          "snow": 0,
          "prefecture": "岐阜県",
          "lat": 36.3077,
          "lon": 137.2449
        },
        {
          "name": "スキージャム勝山 (Ski Jam Katsuyama)",
          "snow": 0,
          "prefecture": "福井県",
          "lat": 36.0733,
          "lon": 136.5556
        },
        {
          "name": "福井和泉スキー場 (Fukui Izumi)",
          "snow": 0,
          "prefecture": "福井県",
          "lat": 35.9397,
          "lon": 136.69208
        },
        {
          "name": "今庄365スキー場 (Imajo)",
          "snow": 0,
          "prefecture": "福井県",
          "lat": 35.755,
          "lon": 136.155
        },
        {
          "name": "白山セイモアスキー場 (Hakusan Seymour)",
          "snow": 0,
          "prefecture": "石川県",
          "lat": 36.3472,
          "lon": 136.6789
        },
        {
          "name": "白山一里野温泉スキー場 (Ichirino)",
          "snow": 0,
          "prefecture": "石川県",
          "lat": 36.2683,
          "lon": 136.715
        },
        {
          "name": "金沢市営医王山スキー場 (Iozen)",
          "snow": 0,
          "prefecture": "石川県",
          "lat": 36.48,
          "lon": 136.7
        },
        {
          "name": "立山山麓スキー場 (Tateyama Sanroku)",
          "snow": 0,
          "prefecture": "富山県",
          "lat": 36.5747,
          "lon": 137.417
        },
        {
          "name": "IOX-AROSA (イオックスアローザ)",
          "snow": 0,
          "prefecture": "富山県",
          "lat": 36.5149,
          "lon": 136.8209
        },
        {
          "name": "牛岳温泉スキー場 (Ushidake Onsen)",
          "snow": 0,
          "prefecture": "富山県",
          "lat": 36.5737,
          "lon": 137.057
        },
        {
          "name": "たいらスキー場 (Taira)",
          "snow": 0,
          "prefecture": "富山県",
          "lat": 36.45,
          "lon": 136.95
        },
        {
          "name": "びわ湖バレイ (Biwako Valley)",
          "snow": 0,
          "prefecture": "滋賀県",
          "lat": 35.203,
          "lon": 135.907
        },
        {
          "name": "グランスノー奥伊吹 (Okuibuki)",
          "snow": 0,
          "prefecture": "滋賀県",
          "lat": 35.522,
          "lon": 136.3872
        },
        {
          "name": "箱館山スキー場 (Hakodateyama)",
          "snow": 0,
          "prefecture": "滋賀県",
          "lat": 35.455,
          "lon": 136.035
        },
        {
          "name": "ハチ北高原スキー場 (Hachi Kita)",
          "snow": 0,
          "prefecture": "兵庫県",
          "lat": 35.4045,
          "lon": 134.558
        },
        {
          "name": "スカイバレースキー場 (Sky Valley)",
          "snow": 0,
          "prefecture": "兵庫県",
          "lat": 35.4489,
          "lon": 134.5458
        },
        {
          "name": "おじろスキー場 (Ojiro)",
          "snow": 0,
          "prefecture": "兵庫県",
          "lat": 35.425,
          "lon": 134.585
        },
        {
          "name": "ちくさ高原スキー場 (Chikusa)",
          "snow": 0,
          "prefecture": "兵庫県",
          "lat": 35.185,
          "lon": 134.455
        },
        {
          "name": "峰山高原リゾート (Mineyama)",
          "snow": 0,
          "prefecture": "兵庫県",
          "lat": 35.155,
          "lon": 134.705
        },
        {
          "name": "氷ノ山国際スキー場 (Hyonosen)",
          "snow": 0,
          "prefecture": "兵庫県",
          "lat": 35.355,
          "lon": 134.525
        },
        {
          "name": "恐羅漢スノーパーク (Osorakan)",
          "snow": 0,
          "prefecture": "広島県",
          "lat": 34.5957,
          "lon": 132.1466
        },
        {
          "name": "めがひらスキー場 (Megahira)",
          "snow": 0,
          "prefecture": "広島県",
          "lat": 34.4533,
          "lon": 132.1158
        },
        {
          "name": "芸北高原大佐スキー場 (Osa)",
          "snow": 0,
          "prefecture": "広島県",
          "lat": 34.7479,
          "lon": 132.2203
        },
        {
          "name": "ユートピアサイオト (Saioto)",
          "snow": 0,
          "prefecture": "広島県",
          "lat": 34.725,
          "lon": 132.355
        },
        {
          "name": "やわたハイランド191 (Yawata)",
          "snow": 0,
          "prefecture": "広島県",
          "lat": 34.6946,
          "lon": 132.16
        }
      ]
    },
    {
      "date": "2026-02-15",
      "display_date": "2/15 (日)",
      "rankings": [
        {
          "name": "奥利根スノーパーク (Okutone)",
          "snow": 0,
          "prefecture": "群馬県",
          "lat": 36.805,
          "lon": 139.005
        },
        {
          "name": "苗場スキー場 (Naeba)",
          "snow": 0,
          "prefecture": "新潟県",
          "lat": 36.7933,
          "lon": 138.7844
        },
        {
          "name": "かぐらスキー場 (Kagura)",
          "snow": 0,
          "prefecture": "新潟県",
          "lat": 36.8375,
          "lon": 138.7778
        },
        {
          "name": "GALA湯沢 (GALA Yuzawa)",
          "snow": 0,
          "prefecture": "新潟県",
          "lat": 36.9405,
          "lon": 138.7944
        },
        {
          "name": "石打丸山スキー場 (Ishiuchi)",
          "snow": 0,
          "prefecture": "新潟県",
          "lat": 36.9892,
          "lon": 138.8028
        },
        {
          "name": "ロッテアライリゾート (Lotte Arai)",
          "snow": 0,
          "prefecture": "新潟県",
          "lat": 36.99064,
          "lon": 138.18138
        },
        {
          "name": "妙高杉ノ原スキー場 (Myoko Suginohara)",
          "snow": 0,
          "prefecture": "新潟県",
          "lat": 36.8336,
          "lon": 138.1633
        },
        {
          "name": "舞子スノーリゾート (Maiko)",
          "snow": 0,
          "prefecture": "新潟県",
          "lat": 36.953,
          "lon": 138.835
        },
        {
          "name": "湯沢高原スキー場 (Yuzawa Kogen)",
          "snow": 0,
          "prefecture": "新潟県",
          "lat": 36.945,
          "lon": 138.805
        },
        {
          "name": "神立スノーリゾート (Kandatsu)",
          "snow": 0,
          "prefecture": "新潟県",
          "lat": 36.92,
          "lon": 138.835
        },
        {
          "name": "ムイカスノーリゾート (Muika)",
          "snow": 0,
          "prefecture": "新潟県",
          "lat": 37.055,
          "lon": 138.955
        },
        {
          "name": "シャルマン火打スキー場 (Charmant)",
          "snow": 0,
          "prefecture": "新潟県",
          "lat": 36.985,
          "lon": 138.055
        },
        {
          "name": "赤倉観光リゾート (Akakura)",
          "snow": 0,
          "prefecture": "新潟県",
          "lat": 36.885,
          "lon": 138.165
        },
        {
          "name": "関温泉スキー場 (Seki Onsen)",
          "snow": 0,
          "prefecture": "新潟県",
          "lat": 36.895,
          "lon": 138.135
        },
        {
          "name": "上越国際スキー場 (Joetsu Kokusai)",
          "snow": 0,
          "prefecture": "新潟県",
          "lat": 37.015,
          "lon": 138.85
        },
        {
          "name": "キューピッドバレイスキー場 (Cupid Valley)",
          "snow": 0,
          "prefecture": "新潟県",
          "lat": 37.05513,
          "lon": 138.4845
        },
        {
          "name": "白馬八方尾根スキー場 (Hakuba Happo)",
          "snow": 0,
          "prefecture": "長野県",
          "lat": 36.7018,
          "lon": 137.8327
        },
        {
          "name": "白馬五竜スキー場 (Hakuba Goryu)",
          "snow": 0,
          "prefecture": "長野県",
          "lat": 36.6572,
          "lon": 137.8306
        },
        {
          "name": "栂池高原スキー場 (Tsugaike)",
          "snow": 0,
          "prefecture": "長野県",
          "lat": 36.7536,
          "lon": 137.8767
        },
        {
          "name": "野沢温泉スキー場 (Nozawa Onsen)",
          "snow": 0,
          "prefecture": "長野県",
          "lat": 36.9197,
          "lon": 138.4485
        },
        {
          "name": "志賀高原 焼額山 (Shiga Kogen)",
          "snow": 0,
          "prefecture": "長野県",
          "lat": 36.7621,
          "lon": 138.5367
        },
        {
          "name": "菅平高原スノーリゾート (Sugadaira)",
          "snow": 0,
          "prefecture": "長野県",
          "lat": 36.5414,
          "lon": 138.3581
        },
        {
          "name": "軽井沢プリンスホテルスキー場 (Karuizawa)",
          "snow": 0,
          "prefecture": "長野県",
          "lat": 36.3353,
          "lon": 138.6339
        },
        {
          "name": "白馬コルチナスキー場 (Cortina)",
          "snow": 0,
          "prefecture": "長野県",
          "lat": 36.785,
          "lon": 137.885
        },
        {
          "name": "白馬乗鞍温泉スキー場 (Norikura)",
          "snow": 0,
          "prefecture": "長野県",
          "lat": 36.775,
          "lon": 137.865
        },
        {
          "name": "白馬岩岳スノーフィールド (Iwatake)",
          "snow": 0,
          "prefecture": "長野県",
          "lat": 36.715,
          "lon": 137.865
        },
        {
          "name": "Hakuba47",
          "snow": 0,
          "prefecture": "長野県",
          "lat": 36.685,
          "lon": 137.835
        },
        {
          "name": "竜王スキーパーク (Ryuoo)",
          "snow": 0,
          "prefecture": "長野県",
          "lat": 36.805,
          "lon": 138.455
        },
        {
          "name": "斑尾高原スキー場 (Madarao)",
          "snow": 0,
          "prefecture": "長野県",
          "lat": 36.845,
          "lon": 138.305
        },
        {
          "name": "タングラムスキーサーカス (Tangram)",
          "snow": 0,
          "prefecture": "長野県",
          "lat": 36.855,
          "lon": 138.285
        },
        {
          "name": "戸隠スキー場 (Togakushi)",
          "snow": 0,
          "prefecture": "長野県",
          "lat": 36.765,
          "lon": 138.085
        },
        {
          "name": "車山高原SKYPARK (Kurumayama)",
          "snow": 0,
          "prefecture": "長野県",
          "lat": 36.105,
          "lon": 138.205
        },
        {
          "name": "奥志賀高原スキー場 (Okushiga)",
          "snow": 0,
          "prefecture": "長野県",
          "lat": 36.78,
          "lon": 138.54
        },
        {
          "name": "ふじてんスノーリゾート (Fujiten)",
          "snow": 0,
          "prefecture": "山梨県",
          "lat": 35.4328,
          "lon": 138.6947
        },
        {
          "name": "サンメドウズ清里 (Sun Meadows)",
          "snow": 0,
          "prefecture": "山梨県",
          "lat": 35.9381,
          "lon": 138.4069
        },
        {
          "name": "カムイみさかスキー場 (Misaka)",
          "snow": 0,
          "prefecture": "山梨県",
          "lat": 35.585,
          "lon": 138.655
        },
        {
          "name": "高鷲スノーパーク (Takasu Snow Park)",
          "snow": 0,
          "prefecture": "岐阜県",
          "lat": 35.998,
          "lon": 136.8773
        },
        {
          "name": "ダイナランド (Dynaland)",
          "snow": 0,
          "prefecture": "岐阜県",
          "lat": 35.9967,
          "lon": 136.8606
        },
        {
          "name": "鷲ヶ岳スキー場 (Washigatake)",
          "snow": 0,
          "prefecture": "岐阜県",
          "lat": 35.9794,
          "lon": 136.8483
        },
        {
          "name": "ホワイトピアたかす (White Pia)",
          "snow": 0,
          "prefecture": "岐阜県",
          "lat": 35.956,
          "lon": 136.935
        },
        {
          "name": "ウイングヒルズ白鳥 (Wing Hills)",
          "snow": 0,
          "prefecture": "岐阜県",
          "lat": 35.9672,
          "lon": 136.7906
        },
        {
          "name": "スノーウェーブパーク白鳥高原 (Shiratori Kogen)",
          "snow": 0,
          "prefecture": "岐阜県",
          "lat": 35.9397,
          "lon": 136.7864
        },
        {
          "name": "めいほうスキー場 (Meiho)",
          "snow": 0,
          "prefecture": "岐阜県",
          "lat": 35.9418,
          "lon": 137.043
        },
        {
          "name": "ほおのき平スキー場 (Honoki Daira)",
          "snow": 0,
          "prefecture": "岐阜県",
          "lat": 36.1436,
          "lon": 137.4528
        },
        {
          "name": "ひるがの高原スキー場 (Hirugano)",
          "snow": 0,
          "prefecture": "岐阜県",
          "lat": 35.985,
          "lon": 136.905
        },
        {
          "name": "飛騨流葉スキー場 (Hida Nagareha)",
          "snow": 0,
          "prefecture": "岐阜県",
          "lat": 36.3077,
          "lon": 137.2449
        },
        {
          "name": "スキージャム勝山 (Ski Jam Katsuyama)",
          "snow": 0,
          "prefecture": "福井県",
          "lat": 36.0733,
          "lon": 136.5556
        },
        {
          "name": "福井和泉スキー場 (Fukui Izumi)",
          "snow": 0,
          "prefecture": "福井県",
          "lat": 35.9397,
          "lon": 136.69208
        },
        {
          "name": "今庄365スキー場 (Imajo)",
          "snow": 0,
          "prefecture": "福井県",
          "lat": 35.755,
          "lon": 136.155
        },
        {
          "name": "白山セイモアスキー場 (Hakusan Seymour)",
          "snow": 0,
          "prefecture": "石川県",
          "lat": 36.3472,
          "lon": 136.6789
        },
        {
          "name": "白山一里野温泉スキー場 (Ichirino)",
          "snow": 0,
          "prefecture": "石川県",
          "lat": 36.2683,
          "lon": 136.715
        },
        {
          "name": "金沢市営医王山スキー場 (Iozen)",
          "snow": 0,
          "prefecture": "石川県",
          "lat": 36.48,
          "lon": 136.7
        },
        {
          "name": "立山山麓スキー場 (Tateyama Sanroku)",
          "snow": 0,
          "prefecture": "富山県",
          "lat": 36.5747,
          "lon": 137.417
        },
        {
          "name": "IOX-AROSA (イオックスアローザ)",
          "snow": 0,
          "prefecture": "富山県",
          "lat": 36.5149,
          "lon": 136.8209
        },
        {
          "name": "牛岳温泉スキー場 (Ushidake Onsen)",
          "snow": 0,
          "prefecture": "富山県",
          "lat": 36.5737,
          "lon": 137.057
        },
        {
          "name": "たいらスキー場 (Taira)",
          "snow": 0,
          "prefecture": "富山県",
          "lat": 36.45,
          "lon": 136.95
        },
        {
          "name": "びわ湖バレイ (Biwako Valley)",
          "snow": 0,
          "prefecture": "滋賀県",
          "lat": 35.203,
          "lon": 135.907
        },
        {
          "name": "グランスノー奥伊吹 (Okuibuki)",
          "snow": 0,
          "prefecture": "滋賀県",
          "lat": 35.522,
          "lon": 136.3872
        },
        {
          "name": "箱館山スキー場 (Hakodateyama)",
          "snow": 0,
          "prefecture": "滋賀県",
          "lat": 35.455,
          "lon": 136.035
        },
        {
          "name": "ハチ北高原スキー場 (Hachi Kita)",
          "snow": 0,
          "prefecture": "兵庫県",
          "lat": 35.4045,
          "lon": 134.558
        },
        {
          "name": "スカイバレースキー場 (Sky Valley)",
          "snow": 0,
          "prefecture": "兵庫県",
          "lat": 35.4489,
          "lon": 134.5458
        },
        {
          "name": "おじろスキー場 (Ojiro)",
          "snow": 0,
          "prefecture": "兵庫県",
          "lat": 35.425,
          "lon": 134.585
        },
        {
          "name": "ちくさ高原スキー場 (Chikusa)",
          "snow": 0,
          "prefecture": "兵庫県",
          "lat": 35.185,
          "lon": 134.455
        },
        {
          "name": "峰山高原リゾート (Mineyama)",
          "snow": 0,
          "prefecture": "兵庫県",
          "lat": 35.155,
          "lon": 134.705
        },
        {
          "name": "氷ノ山国際スキー場 (Hyonosen)",
          "snow": 0,
          "prefecture": "兵庫県",
          "lat": 35.355,
          "lon": 134.525
        },
        {
          "name": "恐羅漢スノーパーク (Osorakan)",
          "snow": 0,
          "prefecture": "広島県",
          "lat": 34.5957,
          "lon": 132.1466
        },
        {
          "name": "めがひらスキー場 (Megahira)",
          "snow": 0,
          "prefecture": "広島県",
          "lat": 34.4533,
          "lon": 132.1158
        },
        {
          "name": "芸北高原大佐スキー場 (Osa)",
          "snow": 0,
          "prefecture": "広島県",
          "lat": 34.7479,
          "lon": 132.2203
        },
        {
          "name": "ユートピアサイオト (Saioto)",
          "snow": 0,
          "prefecture": "広島県",
          "lat": 34.725,
          "lon": 132.355
        },
        {
          "name": "やわたハイランド191 (Yawata)",
          "snow": 0,
          "prefecture": "広島県",
          "lat": 34.6946,
          "lon": 132.16
        }
      ]
    },
    {
      "date": "2026-02-16",
      "display_date": "2/16 (月)",
      "rankings": [
        {
          "name": "奥利根スノーパーク (Okutone)",
          "snow": 0,
          "prefecture": "群馬県",
          "lat": 36.805,
          "lon": 139.005
        },
        {
          "name": "苗場スキー場 (Naeba)",
          "snow": 0,
          "prefecture": "新潟県",
          "lat": 36.7933,
          "lon": 138.7844
        },
        {
          "name": "かぐらスキー場 (Kagura)",
          "snow": 0,
          "prefecture": "新潟県",
          "lat": 36.8375,
          "lon": 138.7778
        },
        {
          "name": "GALA湯沢 (GALA Yuzawa)",
          "snow": 0,
          "prefecture": "新潟県",
          "lat": 36.9405,
          "lon": 138.7944
        },
        {
          "name": "石打丸山スキー場 (Ishiuchi)",
          "snow": 0,
          "prefecture": "新潟県",
          "lat": 36.9892,
          "lon": 138.8028
        },
        {
          "name": "ロッテアライリゾート (Lotte Arai)",
          "snow": 0,
          "prefecture": "新潟県",
          "lat": 36.99064,
          "lon": 138.18138
        },
        {
          "name": "妙高杉ノ原スキー場 (Myoko Suginohara)",
          "snow": 0,
          "prefecture": "新潟県",
          "lat": 36.8336,
          "lon": 138.1633
        },
        {
          "name": "舞子スノーリゾート (Maiko)",
          "snow": 0,
          "prefecture": "新潟県",
          "lat": 36.953,
          "lon": 138.835
        },
        {
          "name": "湯沢高原スキー場 (Yuzawa Kogen)",
          "snow": 0,
          "prefecture": "新潟県",
          "lat": 36.945,
          "lon": 138.805
        },
        {
          "name": "神立スノーリゾート (Kandatsu)",
          "snow": 0,
          "prefecture": "新潟県",
          "lat": 36.92,
          "lon": 138.835
        },
        {
          "name": "ムイカスノーリゾート (Muika)",
          "snow": 0,
          "prefecture": "新潟県",
          "lat": 37.055,
          "lon": 138.955
        },
        {
          "name": "シャルマン火打スキー場 (Charmant)",
          "snow": 0,
          "prefecture": "新潟県",
          "lat": 36.985,
          "lon": 138.055
        },
        {
          "name": "赤倉観光リゾート (Akakura)",
          "snow": 0,
          "prefecture": "新潟県",
          "lat": 36.885,
          "lon": 138.165
        },
        {
          "name": "関温泉スキー場 (Seki Onsen)",
          "snow": 0,
          "prefecture": "新潟県",
          "lat": 36.895,
          "lon": 138.135
        },
        {
          "name": "上越国際スキー場 (Joetsu Kokusai)",
          "snow": 0,
          "prefecture": "新潟県",
          "lat": 37.015,
          "lon": 138.85
        },
        {
          "name": "キューピッドバレイスキー場 (Cupid Valley)",
          "snow": 0,
          "prefecture": "新潟県",
          "lat": 37.05513,
          "lon": 138.4845
        },
        {
          "name": "白馬八方尾根スキー場 (Hakuba Happo)",
          "snow": 0,
          "prefecture": "長野県",
          "lat": 36.7018,
          "lon": 137.8327
        },
        {
          "name": "白馬五竜スキー場 (Hakuba Goryu)",
          "snow": 0,
          "prefecture": "長野県",
          "lat": 36.6572,
          "lon": 137.8306
        },
        {
          "name": "栂池高原スキー場 (Tsugaike)",
          "snow": 0,
          "prefecture": "長野県",
          "lat": 36.7536,
          "lon": 137.8767
        },
        {
          "name": "野沢温泉スキー場 (Nozawa Onsen)",
          "snow": 0,
          "prefecture": "長野県",
          "lat": 36.9197,
          "lon": 138.4485
        },
        {
          "name": "志賀高原 焼額山 (Shiga Kogen)",
          "snow": 0,
          "prefecture": "長野県",
          "lat": 36.7621,
          "lon": 138.5367
        },
        {
          "name": "菅平高原スノーリゾート (Sugadaira)",
          "snow": 0,
          "prefecture": "長野県",
          "lat": 36.5414,
          "lon": 138.3581
        },
        {
          "name": "軽井沢プリンスホテルスキー場 (Karuizawa)",
          "snow": 0,
          "prefecture": "長野県",
          "lat": 36.3353,
          "lon": 138.6339
        },
        {
          "name": "白馬コルチナスキー場 (Cortina)",
          "snow": 0,
          "prefecture": "長野県",
          "lat": 36.785,
          "lon": 137.885
        },
        {
          "name": "白馬乗鞍温泉スキー場 (Norikura)",
          "snow": 0,
          "prefecture": "長野県",
          "lat": 36.775,
          "lon": 137.865
        },
        {
          "name": "白馬岩岳スノーフィールド (Iwatake)",
          "snow": 0,
          "prefecture": "長野県",
          "lat": 36.715,
          "lon": 137.865
        },
        {
          "name": "Hakuba47",
          "snow": 0,
          "prefecture": "長野県",
          "lat": 36.685,
          "lon": 137.835
        },
        {
          "name": "竜王スキーパーク (Ryuoo)",
          "snow": 0,
          "prefecture": "長野県",
          "lat": 36.805,
          "lon": 138.455
        },
        {
          "name": "斑尾高原スキー場 (Madarao)",
          "snow": 0,
          "prefecture": "長野県",
          "lat": 36.845,
          "lon": 138.305
        },
        {
          "name": "タングラムスキーサーカス (Tangram)",
          "snow": 0,
          "prefecture": "長野県",
          "lat": 36.855,
          "lon": 138.285
        },
        {
          "name": "戸隠スキー場 (Togakushi)",
          "snow": 0,
          "prefecture": "長野県",
          "lat": 36.765,
          "lon": 138.085
        },
        {
          "name": "車山高原SKYPARK (Kurumayama)",
          "snow": 0,
          "prefecture": "長野県",
          "lat": 36.105,
          "lon": 138.205
        },
        {
          "name": "奥志賀高原スキー場 (Okushiga)",
          "snow": 0,
          "prefecture": "長野県",
          "lat": 36.78,
          "lon": 138.54
        },
        {
          "name": "ふじてんスノーリゾート (Fujiten)",
          "snow": 0,
          "prefecture": "山梨県",
          "lat": 35.4328,
          "lon": 138.6947
        },
        {
          "name": "サンメドウズ清里 (Sun Meadows)",
          "snow": 0,
          "prefecture": "山梨県",
          "lat": 35.9381,
          "lon": 138.4069
        },
        {
          "name": "カムイみさかスキー場 (Misaka)",
          "snow": 0,
          "prefecture": "山梨県",
          "lat": 35.585,
          "lon": 138.655
        },
        {
          "name": "高鷲スノーパーク (Takasu Snow Park)",
          "snow": 0,
          "prefecture": "岐阜県",
          "lat": 35.998,
          "lon": 136.8773
        },
        {
          "name": "ダイナランド (Dynaland)",
          "snow": 0,
          "prefecture": "岐阜県",
          "lat": 35.9967,
          "lon": 136.8606
        },
        {
          "name": "鷲ヶ岳スキー場 (Washigatake)",
          "snow": 0,
          "prefecture": "岐阜県",
          "lat": 35.9794,
          "lon": 136.8483
        },
        {
          "name": "ホワイトピアたかす (White Pia)",
          "snow": 0,
          "prefecture": "岐阜県",
          "lat": 35.956,
          "lon": 136.935
        },
        {
          "name": "ウイングヒルズ白鳥 (Wing Hills)",
          "snow": 0,
          "prefecture": "岐阜県",
          "lat": 35.9672,
          "lon": 136.7906
        },
        {
          "name": "スノーウェーブパーク白鳥高原 (Shiratori Kogen)",
          "snow": 0,
          "prefecture": "岐阜県",
          "lat": 35.9397,
          "lon": 136.7864
        },
        {
          "name": "めいほうスキー場 (Meiho)",
          "snow": 0,
          "prefecture": "岐阜県",
          "lat": 35.9418,
          "lon": 137.043
        },
        {
          "name": "ほおのき平スキー場 (Honoki Daira)",
          "snow": 0,
          "prefecture": "岐阜県",
          "lat": 36.1436,
          "lon": 137.4528
        },
        {
          "name": "ひるがの高原スキー場 (Hirugano)",
          "snow": 0,
          "prefecture": "岐阜県",
          "lat": 35.985,
          "lon": 136.905
        },
        {
          "name": "飛騨流葉スキー場 (Hida Nagareha)",
          "snow": 0,
          "prefecture": "岐阜県",
          "lat": 36.3077,
          "lon": 137.2449
        },
        {
          "name": "スキージャム勝山 (Ski Jam Katsuyama)",
          "snow": 0,
          "prefecture": "福井県",
          "lat": 36.0733,
          "lon": 136.5556
        },
        {
          "name": "福井和泉スキー場 (Fukui Izumi)",
          "snow": 0,
          "prefecture": "福井県",
          "lat": 35.9397,
          "lon": 136.69208
        },
        {
          "name": "今庄365スキー場 (Imajo)",
          "snow": 0,
          "prefecture": "福井県",
          "lat": 35.755,
          "lon": 136.155
        },
        {
          "name": "白山セイモアスキー場 (Hakusan Seymour)",
          "snow": 0,
          "prefecture": "石川県",
          "lat": 36.3472,
          "lon": 136.6789
        },
        {
          "name": "白山一里野温泉スキー場 (Ichirino)",
          "snow": 0,
          "prefecture": "石川県",
          "lat": 36.2683,
          "lon": 136.715
        },
        {
          "name": "金沢市営医王山スキー場 (Iozen)",
          "snow": 0,
          "prefecture": "石川県",
          "lat": 36.48,
          "lon": 136.7
        },
        {
          "name": "立山山麓スキー場 (Tateyama Sanroku)",
          "snow": 0,
          "prefecture": "富山県",
          "lat": 36.5747,
          "lon": 137.417
        },
        {
          "name": "IOX-AROSA (イオックスアローザ)",
          "snow": 0,
          "prefecture": "富山県",
          "lat": 36.5149,
          "lon": 136.8209
        },
        {
          "name": "牛岳温泉スキー場 (Ushidake Onsen)",
          "snow": 0,
          "prefecture": "富山県",
          "lat": 36.5737,
          "lon": 137.057
        },
        {
          "name": "たいらスキー場 (Taira)",
          "snow": 0,
          "prefecture": "富山県",
          "lat": 36.45,
          "lon": 136.95
        },
        {
          "name": "びわ湖バレイ (Biwako Valley)",
          "snow": 0,
          "prefecture": "滋賀県",
          "lat": 35.203,
          "lon": 135.907
        },
        {
          "name": "グランスノー奥伊吹 (Okuibuki)",
          "snow": 0,
          "prefecture": "滋賀県",
          "lat": 35.522,
          "lon": 136.3872
        },
        {
          "name": "箱館山スキー場 (Hakodateyama)",
          "snow": 0,
          "prefecture": "滋賀県",
          "lat": 35.455,
          "lon": 136.035
        },
        {
          "name": "ハチ北高原スキー場 (Hachi Kita)",
          "snow": 0,
          "prefecture": "兵庫県",
          "lat": 35.4045,
          "lon": 134.558
        },
        {
          "name": "スカイバレースキー場 (Sky Valley)",
          "snow": 0,
          "prefecture": "兵庫県",
          "lat": 35.4489,
          "lon": 134.5458
        },
        {
          "name": "おじろスキー場 (Ojiro)",
          "snow": 0,
          "prefecture": "兵庫県",
          "lat": 35.425,
          "lon": 134.585
        },
        {
          "name": "ちくさ高原スキー場 (Chikusa)",
          "snow": 0,
          "prefecture": "兵庫県",
          "lat": 35.185,
          "lon": 134.455
        },
        {
          "name": "峰山高原リゾート (Mineyama)",
          "snow": 0,
          "prefecture": "兵庫県",
          "lat": 35.155,
          "lon": 134.705
        },
        {
          "name": "氷ノ山国際スキー場 (Hyonosen)",
          "snow": 0,
          "prefecture": "兵庫県",
          "lat": 35.355,
          "lon": 134.525
        },
        {
          "name": "恐羅漢スノーパーク (Osorakan)",
          "snow": 0,
          "prefecture": "広島県",
          "lat": 34.5957,
          "lon": 132.1466
        },
        {
          "name": "めがひらスキー場 (Megahira)",
          "snow": 0,
          "prefecture": "広島県",
          "lat": 34.4533,
          "lon": 132.1158
        },
        {
          "name": "芸北高原大佐スキー場 (Osa)",
          "snow": 0,
          "prefecture": "広島県",
          "lat": 34.7479,
          "lon": 132.2203
        },
        {
          "name": "ユートピアサイオト (Saioto)",
          "snow": 0,
          "prefecture": "広島県",
          "lat": 34.725,
          "lon": 132.355
        },
        {
          "name": "やわたハイランド191 (Yawata)",
          "snow": 0,
          "prefecture": "広島県",
          "lat": 34.6946,
          "lon": 132.16
        }
      ]
    }
  ]
}