{
  "updated_at": "2026-03-25T13:19:44.851Z",
  "dates": [
    {
      "date": "2026-03-26",
      "display_date": "3/26 (木)",
      "rankings": [
        {
          "name": "万座温泉スキー場 (Manza Onsen)",
          "snow": 8.7,
          "prefecture": "群馬県",
          "lat": 36.6341,
          "lon": 138.5133,
          "scores": {
            "snowfall": 0.2033246473792317,
            "snowQuality": 0.5,
            "weather": 0.5,
            "wind": 0.38225212523075086,
            "visibility": 0.014774031693273055
          }
        },
        {
          "name": "サンメドウズ清里 (Sun Meadows)",
          "snow": 4.2,
          "prefecture": "山梨県",
          "lat": 35.9381,
          "lon": 138.4069,
          "scores": {
            "snowfall": 0.07721811084068451,
            "snowQuality": 0.5,
            "weather": 0.5,
            "wind": 0.9812934900456455,
            "visibility": 0.007539734558373393
          }
        },
        {
          "name": "関温泉スキー場 (Seki Onsen)",
          "snow": 3.6,
          "prefecture": "新潟県",
          "lat": 36.895,
          "lon": 138.135,
          "scores": {
            "snowfall": 0.06326364548039624,
            "snowQuality": 0.5,
            "weather": 0.5,
            "wind": 0.9333919644249093,
            "visibility": 0.032295464698450516
          }
        },
        {
          "name": "マウンテンフィールド宮城蔵王すみかわ (Sumikawa)",
          "snow": 2.9,
          "prefecture": "宮城県",
          "lat": 38.125,
          "lon": 140.482,
          "scores": {
            "snowfall": 0.048797202014148514,
            "snowQuality": 0.5,
            "weather": 0.5,
            "wind": 0.9718047120298574,
            "visibility": 0.011206406321842865
          }
        },
        {
          "name": "車山高原SKYPARK (Kurumayama)",
          "snow": 2.7,
          "prefecture": "長野県",
          "lat": 36.105,
          "lon": 138.205,
          "scores": {
            "snowfall": 0.04603181302979808,
            "snowQuality": 0.5,
            "weather": 0.5,
            "wind": 0.9843267119339514,
            "visibility": 0.007660409013360768
          }
        },
        {
          "name": "志賀高原 焼額山 (Shiga Kogen)",
          "snow": 0.9,
          "prefecture": "長野県",
          "lat": 36.7621,
          "lon": 138.5367,
          "scores": {
            "snowfall": 0.013753526940866258,
            "snowQuality": 0.7,
            "weather": 0,
            "wind": 0.789181706522253,
            "visibility": 0.014774031693273055
          }
        },
        {
          "name": "菅平高原スノーリゾート (Sugadaira)",
          "snow": 0.6,
          "prefecture": "長野県",
          "lat": 36.5414,
          "lon": 138.3581,
          "scores": {
            "snowfall": 0.00936153907398761,
            "snowQuality": 0.7,
            "weather": 0,
            "wind": 0.5448788923735802,
            "visibility": 0.9996127295785154
          }
        },
        {
          "name": "ほおのき平スキー場 (Honoki Daira)",
          "snow": 0.4,
          "prefecture": "岐阜県",
          "lat": 36.1436,
          "lon": 137.4528,
          "scores": {
            "snowfall": 0.0061620678139311085,
            "snowQuality": 0.7,
            "weather": 0.5,
            "wind": 0.960074666047186,
            "visibility": 0.007304016900419357
          }
        },
        {
          "name": "日光湯元温泉スキー場 (Nikko Yumoto)",
          "snow": 0.3,
          "prefecture": "栃木県",
          "lat": 36.805,
          "lon": 139.42,
          "scores": {
            "snowfall": 0.005113300232962788,
            "snowQuality": 0.7,
            "weather": 0.5,
            "wind": 0.826353352980995,
            "visibility": 0.007782999732690809
          }
        },
        {
          "name": "ニセコユナイテッド (Niseko United)",
          "snow": 0,
          "prefecture": "北海道",
          "lat": 42.8631,
          "lon": 140.7042,
          "scores": {
            "snowfall": 0,
            "snowQuality": 0.7,
            "weather": 0.8,
            "wind": 0.28905049737499605,
            "visibility": 1
          }
        },
        {
          "name": "ルスツリゾート (Rusutsu)",
          "snow": 0,
          "prefecture": "北海道",
          "lat": 42.7533,
          "lon": 140.9029,
          "scores": {
            "snowfall": 0,
            "snowQuality": 0.7,
            "weather": 0.8,
            "wind": 0.3407396115486146,
            "visibility": 1
          }
        },
        {
          "name": "富良野スキー場 (Furano)",
          "snow": 0,
          "prefecture": "北海道",
          "lat": 43.3243,
          "lon": 142.3456,
          "scores": {
            "snowfall": 0,
            "snowQuality": 0.7,
            "weather": 0.8,
            "wind": 0.8506870654691563,
            "visibility": 1
          }
        },
        {
          "name": "キロロスノーワールド (Kiroro)",
          "snow": 0,
          "prefecture": "北海道",
          "lat": 43.0722,
          "lon": 140.9781,
          "scores": {
            "snowfall": 0,
            "snowQuality": 0.7,
            "weather": 0.8,
            "wind": 0.826353352980995,
            "visibility": 1
          }
        },
        {
          "name": "札幌国際スキー場 (Sapporo Kokusai)",
          "snow": 0,
          "prefecture": "北海道",
          "lat": 43.0724,
          "lon": 141.0827,
          "scores": {
            "snowfall": 0,
            "snowQuality": 0.3,
            "weather": 0.8,
            "wind": 0.3681875822638983,
            "visibility": 1
          }
        },
        {
          "name": "トマムスキー場 (Tomamu)",
          "snow": 0,
          "prefecture": "北海道",
          "lat": 43.0628,
          "lon": 142.6322,
          "scores": {
            "snowfall": 0,
            "snowQuality": 0.7,
            "weather": 0.8,
            "wind": 0.8347951298093854,
            "visibility": 1
          }
        },
        {
          "name": "サッポロテイネ (Sapporo Teine)",
          "snow": 0,
          "prefecture": "北海道",
          "lat": 43.0973,
          "lon": 141.2044,
          "scores": {
            "snowfall": 0,
            "snowQuality": 0.7,
            "weather": 0.8,
            "wind": 0.5448788923735802,
            "visibility": 1
          }
        },
        {
          "name": "カムイスキーリンクス (Kamui)",
          "snow": 0,
          "prefecture": "北海道",
          "lat": 43.6444,
          "lon": 142.2283,
          "scores": {
            "snowfall": 0,
            "snowQuality": 0.3,
            "weather": 0.8,
            "wind": 0.9212896628294647,
            "visibility": 1
          }
        },
        {
          "name": "サホロリゾート (Sahoro)",
          "snow": 0,
          "prefecture": "北海道",
          "lat": 43.1749,
          "lon": 142.8076,
          "scores": {
            "snowfall": 0,
            "snowQuality": 0.3,
            "weather": 0.8,
            "wind": 0.8347951298093854,
            "visibility": 1
          }
        },
        {
          "name": "ニセコモイワスキー場 (Niseko Moiwa)",
          "snow": 0,
          "prefecture": "北海道",
          "lat": 42.855,
          "lon": 140.638,
          "scores": {
            "snowfall": 0,
            "snowQuality": 0.7,
            "weather": 0.8,
            "wind": 0.2108182934777472,
            "visibility": 1
          }
        },
        {
          "name": "大雪山旭岳ロープウェイ (Asahidake)",
          "snow": 0,
          "prefecture": "北海道",
          "lat": 43.6542,
          "lon": 142.7964,
          "scores": {
            "snowfall": 0,
            "snowQuality": 0.3,
            "weather": 0.8,
            "wind": 0.8506870654691563,
            "visibility": 0.9996338129370322
          }
        },
        {
          "name": "八甲田スキー場 (Hakkoda)",
          "snow": 0,
          "prefecture": "青森県",
          "lat": 40.6868,
          "lon": 140.8654,
          "scores": {
            "snowfall": 0,
            "snowQuality": 0.7,
            "weather": 0.5,
            "wind": 0.8721384336809187,
            "visibility": 1
          }
        },
        {
          "name": "青森スプリング (Aomori Spring)",
          "snow": 0,
          "prefecture": "青森県",
          "lat": 40.7303,
          "lon": 140.2479,
          "scores": {
            "snowfall": 0,
            "snowQuality": 0.3,
            "weather": 0.8,
            "wind": 0.8909031788043871,
            "visibility": 1
          }
        },
        {
          "name": "モヤヒルズ (Moya Hills)",
          "snow": 0,
          "prefecture": "青森県",
          "lat": 40.7275,
          "lon": 140.8033,
          "scores": {
            "snowfall": 0,
            "snowQuality": 0.3,
            "weather": 0.8,
            "wind": 0.9860743596934995,
            "visibility": 1
          }
        },
        {
          "name": "大鰐温泉スキー場 (Owani Onsen)",
          "snow": 0,
          "prefecture": "青森県",
          "lat": 40.505,
          "lon": 140.556,
          "scores": {
            "snowfall": 0,
            "snowQuality": 0.3,
            "weather": 0,
            "wind": 0.9468488636019362,
            "visibility": 1
          }
        },
        {
          "name": "安比高原スキー場 (Appi Kogen)",
          "snow": 0,
          "prefecture": "岩手県",
          "lat": 40.0019,
          "lon": 140.9749,
          "scores": {
            "snowfall": 0,
            "snowQuality": 0.3,
            "weather": 0,
            "wind": 0.9497887268097336,
            "visibility": 0.13991453383301455
          }
        },
        {
          "name": "夏油高原スキー場 (Geto Kogen)",
          "snow": 0,
          "prefecture": "岩手県",
          "lat": 39.2311,
          "lon": 140.9419,
          "scores": {
            "snowfall": 0,
            "snowQuality": 0.7,
            "weather": 0,
            "wind": 0.9577102281579662,
            "visibility": 0.15709546888545273
          }
        },
        {
          "name": "雫石スキー場 (Shizukuishi)",
          "snow": 0,
          "prefecture": "岩手県",
          "lat": 39.718,
          "lon": 140.9575,
          "scores": {
            "snowfall": 0,
            "snowQuality": 0.3,
            "weather": 0,
            "wind": 0.9718047120298574,
            "visibility": 0.515994540902702
          }
        },
        {
          "name": "八幡平リゾート (Hachimantai)",
          "snow": 0,
          "prefecture": "岩手県",
          "lat": 39.9075,
          "lon": 141.0264,
          "scores": {
            "snowfall": 0,
            "snowQuality": 0.3,
            "weather": 0,
            "wind": 0.9664307767185175,
            "visibility": 0.13991453383301455
          }
        },
        {
          "name": "岩手高原スノーパーク (Iwate Kogen)",
          "snow": 0,
          "prefecture": "岩手県",
          "lat": 39.715,
          "lon": 140.98,
          "scores": {
            "snowfall": 0,
            "snowQuality": 0.3,
            "weather": 0,
            "wind": 0.9801596942659225,
            "visibility": 0.515994540902702
          }
        },
        {
          "name": "みやぎ蔵王えぼし (Eboshi)",
          "snow": 0,
          "prefecture": "宮城県",
          "lat": 38.1257,
          "lon": 140.5422,
          "scores": {
            "snowfall": 0,
            "snowQuality": 0.7,
            "weather": 0,
            "wind": 0.973403006423134,
            "visibility": 0.011206406321842865
          }
        },
        {
          "name": "スプリングバレー仙台泉 (Spring Valley)",
          "snow": 0,
          "prefecture": "宮城県",
          "lat": 38.423,
          "lon": 140.7226,
          "scores": {
            "snowfall": 0,
            "snowQuality": 0.7,
            "weather": 0,
            "wind": 0.9701133201963639,
            "visibility": 0.013546339332795903
          }
        },
        {
          "name": "オニコウベスキー場 (Onikoube)",
          "snow": 0,
          "prefecture": "宮城県",
          "lat": 38.802,
          "lon": 140.645,
          "scores": {
            "snowfall": 0,
            "snowQuality": 0.3,
            "weather": 0,
            "wind": 0.9255320548339719,
            "visibility": 0.03462301662905805
          }
        },
        {
          "name": "たざわ湖スキー場 (Tazawako)",
          "snow": 0,
          "prefecture": "秋田県",
          "lat": 39.757,
          "lon": 140.758,
          "scores": {
            "snowfall": 0,
            "snowQuality": 0.3,
            "weather": 0,
            "wind": 0.8175744761936437,
            "visibility": 0.056465665049550126
          }
        },
        {
          "name": "ジュネス栗駒 (Jeunesse)",
          "snow": 0,
          "prefecture": "秋田県",
          "lat": 39.1822,
          "lon": 140.6713,
          "scores": {
            "snowfall": 0,
            "snowQuality": 0.3,
            "weather": 0,
            "wind": 0.9683237716209436,
            "visibility": 0.05002085562990517
          }
        },
        {
          "name": "阿仁スキー場 (Ani)",
          "snow": 0,
          "prefecture": "秋田県",
          "lat": 39.953,
          "lon": 140.354,
          "scores": {
            "snowfall": 0,
            "snowQuality": 0.3,
            "weather": 0,
            "wind": 0.9468488636019362,
            "visibility": 0.999999999999988
          }
        },
        {
          "name": "太平山スキー場オーパス (Opas)",
          "snow": 0,
          "prefecture": "秋田県",
          "lat": 39.78,
          "lon": 140.18,
          "scores": {
            "snowfall": 0,
            "snowQuality": 0.2,
            "weather": 0,
            "wind": 0.9577102281579662,
            "visibility": 0.9999999996158546
          }
        },
        {
          "name": "蔵王温泉スキー場 (Zao Onsen)",
          "snow": 0,
          "prefecture": "山形県",
          "lat": 38.1636,
          "lon": 140.4042,
          "scores": {
            "snowfall": 0,
            "snowQuality": 0.7,
            "weather": 0,
            "wind": 0.8965995485417504,
            "visibility": 0.011206406321842865
          }
        },
        {
          "name": "天元台高原 (Tengendai)",
          "snow": 0,
          "prefecture": "山形県",
          "lat": 37.7983,
          "lon": 140.1197,
          "scores": {
            "snowfall": 0,
            "snowQuality": 0.3,
            "weather": 0,
            "wind": 0.9918374288468401,
            "visibility": 0.9993642060316048
          }
        },
        {
          "name": "ジャングルジャングル (Jungle Jungle)",
          "snow": 0,
          "prefecture": "山形県",
          "lat": 38.455,
          "lon": 140.455,
          "scores": {
            "snowfall": 0,
            "snowQuality": 0.3,
            "weather": 0,
            "wind": 0.9718047120298574,
            "visibility": 0.2286411422175609
          }
        },
        {
          "name": "月山スキー場 (Gassan)",
          "snow": 0,
          "prefecture": "山形県",
          "lat": 38.51892,
          "lon": 140.00662,
          "scores": {
            "snowfall": 0,
            "snowQuality": 0.7,
            "weather": 0,
            "wind": 0.410959565941335,
            "visibility": 0.03155376656970557
          }
        },
        {
          "name": "星野リゾート ネコマ マウンテン (Nekoma)",
          "snow": 0,
          "prefecture": "福島県",
          "lat": 37.6042,
          "lon": 140.0381,
          "scores": {
            "snowfall": 0,
            "snowQuality": 0.7,
            "weather": 0,
            "wind": 0.8175744761936437,
            "visibility": 0.99999998350156
          }
        },
        {
          "name": "グランデコスノーリゾート (Grandeco)",
          "snow": 0,
          "prefecture": "福島県",
          "lat": 37.6853,
          "lon": 140.0933,
          "scores": {
            "snowfall": 0,
            "snowQuality": 0.7,
            "weather": 0,
            "wind": 0.7790261077798122,
            "visibility": 0.9993642060316048
          }
        },
        {
          "name": "猪苗代スキー場 (Inawashiro)",
          "snow": 0,
          "prefecture": "福島県",
          "lat": 37.575,
          "lon": 140.063,
          "scores": {
            "snowfall": 0,
            "snowQuality": 0.3,
            "weather": 0,
            "wind": 0.8175744761936437,
            "visibility": 0.99999998350156
          }
        },
        {
          "name": "箕輪スキー場 (Minowa)",
          "snow": 0,
          "prefecture": "福島県",
          "lat": 37.64,
          "lon": 140.23,
          "scores": {
            "snowfall": 0,
            "snowQuality": 0.7,
            "weather": 0,
            "wind": 0.9404756340234984,
            "visibility": 0.009951801866904317
          }
        },
        {
          "name": "沼尻スキー場 (Numajiri)",
          "snow": 0,
          "prefecture": "福島県",
          "lat": 37.625,
          "lon": 140.245,
          "scores": {
            "snowfall": 0,
            "snowQuality": 0.7,
            "weather": 0,
            "wind": 0.9404756340234984,
            "visibility": 0.009951801866904317
          }
        },
        {
          "name": "会津高原だいくらスキー場 (Daikura)",
          "snow": 0,
          "prefecture": "福島県",
          "lat": 37.155,
          "lon": 139.705,
          "scores": {
            "snowfall": 0,
            "snowQuality": 0.3,
            "weather": 0,
            "wind": 0.9212896628294647,
            "visibility": 0.9999999967996318
          }
        },
        {
          "name": "ハンターマウンテン塩原 (Hunter Mt)",
          "snow": 0,
          "prefecture": "栃木県",
          "lat": 36.9377,
          "lon": 139.7744,
          "scores": {
            "snowfall": 0,
            "snowQuality": 0.7,
            "weather": 0,
            "wind": 0.9295632691071828,
            "visibility": 0.036827062811560604
          }
        },
        {
          "name": "マウントジーンズ那須 (Mt.JEANS)",
          "snow": 0,
          "prefecture": "栃木県",
          "lat": 37.1264,
          "lon": 139.988,
          "scores": {
            "snowfall": 0,
            "snowQuality": 0.7,
            "weather": 0,
            "wind": 0.8506870654691563,
            "visibility": 0.9992479835049899
          }
        },
        {
          "name": "エーデルワイススキーリゾート (Edelweiss)",
          "snow": 0,
          "prefecture": "栃木県",
          "lat": 36.932,
          "lon": 139.755,
          "scores": {
            "snowfall": 0,
            "snowQuality": 0.7,
            "weather": 0,
            "wind": 0.9295632691071828,
            "visibility": 0.036827062811560604
          }
        },
        {
          "name": "丸沼高原スキー場 (Marunuma)",
          "snow": 0,
          "prefecture": "群馬県",
          "lat": 36.8183,
          "lon": 139.3364,
          "scores": {
            "snowfall": 0,
            "snowQuality": 0.7,
            "weather": 0,
            "wind": 0.960074666047186,
            "visibility": 0.00803405018036071
          }
        },
        {
          "name": "川場スキー場 (Kawaba)",
          "snow": 0,
          "prefecture": "群馬県",
          "lat": 36.8122,
          "lon": 139.1083,
          "scores": {
            "snowfall": 0,
            "snowQuality": 0.7,
            "weather": 0,
            "wind": 0.8652969480479719,
            "visibility": 0.03082855963701077
          }
        },
        {
          "name": "たんばらスキーパーク (Tambara)",
          "snow": 0,
          "prefecture": "群馬県",
          "lat": 36.7867,
          "lon": 139.0667,
          "scores": {
            "snowfall": 0,
            "snowQuality": 0.7,
            "weather": 0,
            "wind": 0.8429045311145473,
            "visibility": 0.03082855963701077
          }
        },
        {
          "name": "ノルン水上スキー場 (Norn Minakami)",
          "snow": 0,
          "prefecture": "群馬県",
          "lat": 36.8042,
          "lon": 138.9722,
          "scores": {
            "snowfall": 0,
            "snowQuality": 0.3,
            "weather": 0,
            "wind": 0.8786811621082631,
            "visibility": 0.03082855963701077
          }
        },
        {
          "name": "ホワイトワールド尾瀬岩鞍 (Oze Iwakura)",
          "snow": 0,
          "prefecture": "群馬県",
          "lat": 36.84,
          "lon": 139.22,
          "scores": {
            "snowfall": 0,
            "snowQuality": 0.7,
            "weather": 0,
            "wind": 0.9295632691071828,
            "visibility": 0.00803405018036071
          }
        },
        {
          "name": "かたしな高原スキー場 (Katashina)",
          "snow": 0,
          "prefecture": "群馬県",
          "lat": 36.83,
          "lon": 139.23,
          "scores": {
            "snowfall": 0,
            "snowQuality": 0.7,
            "weather": 0,
            "wind": 0.9552122969502131,
            "visibility": 0.00803405018036071
          }
        },
        {
          "name": "群馬みなかみほうだいぎスキー場 (Houdaigi)",
          "snow": 0,
          "prefecture": "群馬県",
          "lat": 36.852,
          "lon": 139.055,
          "scores": {
            "snowfall": 0,
            "snowQuality": 0.3,
            "weather": 0,
            "wind": 0.7989910002494707,
            "visibility": 0.03082855963701077
          }
        },
        {
          "name": "奥利根スノーパーク (Okutone)",
          "snow": 0,
          "prefecture": "群馬県",
          "lat": 36.805,
          "lon": 139.005,
          "scores": {
            "snowfall": 0,
            "snowQuality": 0.3,
            "weather": 0,
            "wind": 0.8786811621082631,
            "visibility": 0.03082855963701077
          }
        },
        {
          "name": "苗場スキー場 (Naeba)",
          "snow": 0,
          "prefecture": "新潟県",
          "lat": 36.7933,
          "lon": 138.7844,
          "scores": {
            "snowfall": 0,
            "snowQuality": 0.3,
            "weather": 0,
            "wind": 0.6856801139382539,
            "visibility": 0.007845023030455634
          }
        },
        {
          "name": "かぐらスキー場 (Kagura)",
          "snow": 0,
          "prefecture": "新潟県",
          "lat": 36.8375,
          "lon": 138.7778,
          "scores": {
            "snowfall": 0,
            "snowQuality": 0.3,
            "weather": 0,
            "wind": 0.9718047120298574,
            "visibility": 0.007845023030455634
          }
        },
        {
          "name": "GALA湯沢 (GALA Yuzawa)",
          "snow": 0,
          "prefecture": "新潟県",
          "lat": 36.9405,
          "lon": 138.7944,
          "scores": {
            "snowfall": 0,
            "snowQuality": 0.3,
            "weather": 0,
            "wind": 0.9749130378465203,
            "visibility": 0.9999944627110562
          }
        },
        {
          "name": "石打丸山スキー場 (Ishiuchi)",
          "snow": 0,
          "prefecture": "新潟県",
          "lat": 36.9892,
          "lon": 138.8028,
          "scores": {
            "snowfall": 0,
            "snowQuality": 0.2,
            "weather": 0,
            "wind": 0.973403006423134,
            "visibility": 0.9999944627110562
          }
        },
        {
          "name": "ロッテアライリゾート (Lotte Arai)",
          "snow": 0,
          "prefecture": "新潟県",
          "lat": 36.99064,
          "lon": 138.18138,
          "scores": {
            "snowfall": 0,
            "snowQuality": 0.3,
            "weather": 0,
            "wind": 0.9552122969502131,
            "visibility": 0.032295464698450516
          }
        },
        {
          "name": "妙高杉ノ原スキー場 (Myoko Suginohara)",
          "snow": 0,
          "prefecture": "新潟県",
          "lat": 36.8336,
          "lon": 138.1633,
          "scores": {
            "snowfall": 0,
            "snowQuality": 0.3,
            "weather": 0,
            "wind": 0.8429045311145473,
            "visibility": 0.9999999999607081
          }
        },
        {
          "name": "舞子スノーリゾート (Maiko)",
          "snow": 0,
          "prefecture": "新潟県",
          "lat": 36.953,
          "lon": 138.835,
          "scores": {
            "snowfall": 0,
            "snowQuality": 0.3,
            "weather": 0,
            "wind": 0.9468488636019362,
            "visibility": 0.9999944627110562
          }
        },
        {
          "name": "湯沢高原スキー場 (Yuzawa Kogen)",
          "snow": 0,
          "prefecture": "新潟県",
          "lat": 36.945,
          "lon": 138.805,
          "scores": {
            "snowfall": 0,
            "snowQuality": 0.2,
            "weather": 0,
            "wind": 0.9749130378465203,
            "visibility": 0.9999944627110562
          }
        },
        {
          "name": "神立スノーリゾート (Kandatsu)",
          "snow": 0,
          "prefecture": "新潟県",
          "lat": 36.92,
          "lon": 138.835,
          "scores": {
            "snowfall": 0,
            "snowQuality": 0.3,
            "weather": 0,
            "wind": 0.9749130378465203,
            "visibility": 0.9999944627110562
          }
        },
        {
          "name": "ムイカスノーリゾート (Muika)",
          "snow": 0,
          "prefecture": "新潟県",
          "lat": 37.055,
          "lon": 138.955,
          "scores": {
            "snowfall": 0,
            "snowQuality": 0.2,
            "weather": 0,
            "wind": 0.9876295852598377,
            "visibility": 0.9998528631052482
          }
        },
        {
          "name": "シャルマン火打スキー場 (Charmant)",
          "snow": 0,
          "prefecture": "新潟県",
          "lat": 36.985,
          "lon": 138.055,
          "scores": {
            "snowfall": 0,
            "snowQuality": 0.3,
            "weather": 0,
            "wind": 0.9683237716209436,
            "visibility": 0.010436031753860332
          }
        },
        {
          "name": "赤倉観光リゾート (Akakura)",
          "snow": 0,
          "prefecture": "新潟県",
          "lat": 36.885,
          "lon": 138.165,
          "scores": {
            "snowfall": 0,
            "snowQuality": 0.3,
            "weather": 0,
            "wind": 0.8652969480479719,
            "visibility": 0.032295464698450516
          }
        },
        {
          "name": "上越国際スキー場 (Joetsu Kokusai)",
          "snow": 0,
          "prefecture": "新潟県",
          "lat": 37.015,
          "lon": 138.85,
          "scores": {
            "snowfall": 0,
            "snowQuality": 0.2,
            "weather": 0,
            "wind": 0.9852259683067269,
            "visibility": 0.9999944627110562
          }
        },
        {
          "name": "キューピッドバレイスキー場 (Cupid Valley)",
          "snow": 0,
          "prefecture": "新潟県",
          "lat": 37.05513,
          "lon": 138.4845,
          "scores": {
            "snowfall": 0,
            "snowQuality": 0.2,
            "weather": 0,
            "wind": 0.9404756340234984,
            "visibility": 0.999999974586874
          }
        },
        {
          "name": "白馬八方尾根スキー場 (Hakuba Happo)",
          "snow": 0,
          "prefecture": "長野県",
          "lat": 36.7018,
          "lon": 137.8327,
          "scores": {
            "snowfall": 0,
            "snowQuality": 0.3,
            "weather": 0,
            "wind": 0.9525741268224334,
            "visibility": 0.007246239595831429
          }
        },
        {
          "name": "白馬五竜スキー場 (Hakuba Goryu)",
          "snow": 0,
          "prefecture": "長野県",
          "lat": 36.6572,
          "lon": 137.8306,
          "scores": {
            "snowfall": 0,
            "snowQuality": 0.3,
            "weather": 0,
            "wind": 0.9789586529795317,
            "visibility": 0.007246239595831429
          }
        },
        {
          "name": "栂池高原スキー場 (Tsugaike)",
          "snow": 0,
          "prefecture": "長野県",
          "lat": 36.7536,
          "lon": 137.8767,
          "scores": {
            "snowfall": 0,
            "snowQuality": 0.3,
            "weather": 0,
            "wind": 0.9020311957024462,
            "visibility": 0.008836400460607722
          }
        },
        {
          "name": "野沢温泉スキー場 (Nozawa Onsen)",
          "snow": 0,
          "prefecture": "長野県",
          "lat": 36.9197,
          "lon": 138.4485,
          "scores": {
            "snowfall": 0,
            "snowQuality": 0.3,
            "weather": 0,
            "wind": 0.9370266439430035,
            "visibility": 0.999999974586874
          }
        },
        {
          "name": "軽井沢プリンスホテルスキー場 (Karuizawa)",
          "snow": 0,
          "prefecture": "長野県",
          "lat": 36.3353,
          "lon": 138.6339,
          "scores": {
            "snowfall": 0,
            "snowQuality": 0.7,
            "weather": 0,
            "wind": 0.8429045311145473,
            "visibility": 0.02154143817767651
          }
        },
        {
          "name": "白馬コルチナスキー場 (Cortina)",
          "snow": 0,
          "prefecture": "長野県",
          "lat": 36.785,
          "lon": 137.885,
          "scores": {
            "snowfall": 0,
            "snowQuality": 0.7,
            "weather": 0,
            "wind": 0.8909031788043871,
            "visibility": 0.008836400460607722
          }
        },
        {
          "name": "白馬乗鞍温泉スキー場 (Norikura)",
          "snow": 0,
          "prefecture": "長野県",
          "lat": 36.775,
          "lon": 137.865,
          "scores": {
            "snowfall": 0,
            "snowQuality": 0.7,
            "weather": 0,
            "wind": 0.8909031788043871,
            "visibility": 0.007246239595831429
          }
        },
        {
          "name": "白馬岩岳スノーフィールド (Iwatake)",
          "snow": 0,
          "prefecture": "長野県",
          "lat": 36.715,
          "lon": 137.865,
          "scores": {
            "snowfall": 0,
            "snowQuality": 0.3,
            "weather": 0,
            "wind": 0.9525741268224334,
            "visibility": 0.007246239595831429
          }
        },
        {
          "name": "Hakuba47",
          "snow": 0,
          "prefecture": "長野県",
          "lat": 36.685,
          "lon": 137.835,
          "scores": {
            "snowfall": 0,
            "snowQuality": 0.3,
            "weather": 0,
            "wind": 0.9525741268224334,
            "visibility": 0.007246239595831429
          }
        },
        {
          "name": "竜王スキーパーク (Ryuoo)",
          "snow": 0,
          "prefecture": "長野県",
          "lat": 36.805,
          "lon": 138.455,
          "scores": {
            "snowfall": 0,
            "snowQuality": 0.3,
            "weather": 0,
            "wind": 0.9644288107273639,
            "visibility": 0.014774031693273055
          }
        },
        {
          "name": "斑尾高原スキー場 (Madarao)",
          "snow": 0,
          "prefecture": "長野県",
          "lat": 36.845,
          "lon": 138.305,
          "scores": {
            "snowfall": 0,
            "snowQuality": 0.3,
            "weather": 0,
            "wind": 0.9333919644249093,
            "visibility": 0.9999999999607081
          }
        },
        {
          "name": "タングラムスキーサーカス (Tangram)",
          "snow": 0,
          "prefecture": "長野県",
          "lat": 36.855,
          "lon": 138.285,
          "scores": {
            "snowfall": 0,
            "snowQuality": 0.3,
            "weather": 0,
            "wind": 0.9333919644249093,
            "visibility": 0.9999999999607081
          }
        },
        {
          "name": "戸隠スキー場 (Togakushi)",
          "snow": 0,
          "prefecture": "長野県",
          "lat": 36.765,
          "lon": 138.085,
          "scores": {
            "snowfall": 0,
            "snowQuality": 0.7,
            "weather": 0,
            "wind": 0.9552122969502131,
            "visibility": 0.008836400460607722
          }
        },
        {
          "name": "奥志賀高原スキー場 (Okushiga)",
          "snow": 0,
          "prefecture": "長野県",
          "lat": 36.78,
          "lon": 138.54,
          "scores": {
            "snowfall": 0,
            "snowQuality": 0.7,
            "weather": 0,
            "wind": 0.9468488636019362,
            "visibility": 0.014774031693273055
          }
        },
        {
          "name": "ふじてんスノーリゾート (Fujiten)",
          "snow": 0,
          "prefecture": "山梨県",
          "lat": 35.4328,
          "lon": 138.6947,
          "scores": {
            "snowfall": 0,
            "snowQuality": 0.7,
            "weather": 0,
            "wind": 0.4850044983805899,
            "visibility": 0.021881270936130466
          }
        },
        {
          "name": "カムイみさかスキー場 (Misaka)",
          "snow": 0,
          "prefecture": "山梨県",
          "lat": 35.585,
          "lon": 138.655,
          "scores": {
            "snowfall": 0,
            "snowQuality": 0.3,
            "weather": 0,
            "wind": 0.9577102281579662,
            "visibility": 0.021881270936130466
          }
        },
        {
          "name": "高鷲スノーパーク (Takasu Snow Park)",
          "snow": 0,
          "prefecture": "岐阜県",
          "lat": 35.998,
          "lon": 136.8773,
          "scores": {
            "snowfall": 0,
            "snowQuality": 0.3,
            "weather": 0,
            "wind": 0.9577102281579662,
            "visibility": 0.9999999999999982
          }
        },
        {
          "name": "ダイナランド (Dynaland)",
          "snow": 0,
          "prefecture": "岐阜県",
          "lat": 35.9967,
          "lon": 136.8606,
          "scores": {
            "snowfall": 0,
            "snowQuality": 0.3,
            "weather": 0,
            "wind": 0.9718047120298574,
            "visibility": 0.12875632924181826
          }
        },
        {
          "name": "鷲ヶ岳スキー場 (Washigatake)",
          "snow": 0,
          "prefecture": "岐阜県",
          "lat": 35.9794,
          "lon": 136.8483,
          "scores": {
            "snowfall": 0,
            "snowQuality": 0.3,
            "weather": 0,
            "wind": 0.9577102281579662,
            "visibility": 0.12875632924181826
          }
        },
        {
          "name": "ホワイトピアたかす (White Pia)",
          "snow": 0,
          "prefecture": "岐阜県",
          "lat": 35.956,
          "lon": 136.935,
          "scores": {
            "snowfall": 0,
            "snowQuality": 0.3,
            "weather": 0,
            "wind": 0.8849332679544502,
            "visibility": 0.9999999999999982
          }
        },
        {
          "name": "ウイングヒルズ白鳥 (Wing Hills)",
          "snow": 0,
          "prefecture": "岐阜県",
          "lat": 35.9672,
          "lon": 136.7906,
          "scores": {
            "snowfall": 0,
            "snowQuality": 0.3,
            "weather": 0,
            "wind": 0.9497887268097336,
            "visibility": 0.12875632924181826
          }
        },
        {
          "name": "スノーウェーブパーク白鳥高原 (Shiratori Kogen)",
          "snow": 0,
          "prefecture": "岐阜県",
          "lat": 35.9397,
          "lon": 136.7864,
          "scores": {
            "snowfall": 0,
            "snowQuality": 0.3,
            "weather": 0,
            "wind": 0.9497887268097336,
            "visibility": 0.12875632924181826
          }
        },
        {
          "name": "めいほうスキー場 (Meiho)",
          "snow": 0,
          "prefecture": "岐阜県",
          "lat": 35.9418,
          "lon": 137.043,
          "scores": {
            "snowfall": 0,
            "snowQuality": 0.3,
            "weather": 0,
            "wind": 0.9404756340234984,
            "visibility": 0.9999999999999982
          }
        },
        {
          "name": "ひるがの高原スキー場 (Hirugano)",
          "snow": 0,
          "prefecture": "岐阜県",
          "lat": 35.985,
          "lon": 136.905,
          "scores": {
            "snowfall": 0,
            "snowQuality": 0.3,
            "weather": 0,
            "wind": 0.9468488636019362,
            "visibility": 0.9999999999999982
          }
        },
        {
          "name": "飛騨流葉スキー場 (Hida Nagareha)",
          "snow": 0,
          "prefecture": "岐阜県",
          "lat": 36.3077,
          "lon": 137.2449,
          "scores": {
            "snowfall": 0,
            "snowQuality": 0.3,
            "weather": 0,
            "wind": 0.9718047120298574,
            "visibility": 0.9999999999950517
          }
        },
        {
          "name": "スキージャム勝山 (Ski Jam Katsuyama)",
          "snow": 0,
          "prefecture": "福井県",
          "lat": 36.0733,
          "lon": 136.5556,
          "scores": {
            "snowfall": 0,
            "snowQuality": 0.3,
            "weather": 0,
            "wind": 0.9497887268097336,
            "visibility": 0.9946003131500922
          }
        },
        {
          "name": "福井和泉スキー場 (Fukui Izumi)",
          "snow": 0,
          "prefecture": "福井県",
          "lat": 35.9397,
          "lon": 136.69208,
          "scores": {
            "snowfall": 0,
            "snowQuality": 0.3,
            "weather": 0,
            "wind": 0.960074666047186,
            "visibility": 0.12875632924181826
          }
        },
        {
          "name": "今庄365スキー場 (Imajo)",
          "snow": 0,
          "prefecture": "福井県",
          "lat": 35.755,
          "lon": 136.155,
          "scores": {
            "snowfall": 0,
            "snowQuality": 0.3,
            "weather": 0,
            "wind": 0.8721384336809187,
            "visibility": 0.010857310133318625
          }
        },
        {
          "name": "白山セイモアスキー場 (Hakusan Seymour)",
          "snow": 0,
          "prefecture": "石川県",
          "lat": 36.3472,
          "lon": 136.6789,
          "scores": {
            "snowfall": 0,
            "snowQuality": 0.3,
            "weather": 0,
            "wind": 0.9577102281579662,
            "visibility": 0.7539887164489482
          }
        },
        {
          "name": "白山一里野温泉スキー場 (Ichirino)",
          "snow": 0,
          "prefecture": "石川県",
          "lat": 36.2683,
          "lon": 136.715,
          "scores": {
            "snowfall": 0,
            "snowQuality": 0.3,
            "weather": 0,
            "wind": 0.9468488636019362,
            "visibility": 0.02007501531054053
          }
        },
        {
          "name": "金沢市営医王山スキー場 (Iozen)",
          "snow": 0,
          "prefecture": "石川県",
          "lat": 36.48,
          "lon": 136.7,
          "scores": {
            "snowfall": 0,
            "snowQuality": 0.3,
            "weather": 0,
            "wind": 0.9333919644249093,
            "visibility": 0.7539887164489482
          }
        },
        {
          "name": "立山山麓スキー場 (Tateyama Sanroku)",
          "snow": 0,
          "prefecture": "富山県",
          "lat": 36.5747,
          "lon": 137.417,
          "scores": {
            "snowfall": 0,
            "snowQuality": 0.3,
            "weather": 0,
            "wind": 0.9718047120298574,
            "visibility": 0.9661702673871027
          }
        },
        {
          "name": "IOX-AROSA (イオックスアローザ)",
          "snow": 0,
          "prefecture": "富山県",
          "lat": 36.5149,
          "lon": 136.8209,
          "scores": {
            "snowfall": 0,
            "snowQuality": 0.3,
            "weather": 0,
            "wind": 0.9701133201963639,
            "visibility": 0.7539887164489482
          }
        },
        {
          "name": "牛岳温泉スキー場 (Ushidake Onsen)",
          "snow": 0,
          "prefecture": "富山県",
          "lat": 36.5737,
          "lon": 137.057,
          "scores": {
            "snowfall": 0,
            "snowQuality": 0.3,
            "weather": 0,
            "wind": 0.9683237716209436,
            "visibility": 0.00803405018036071
          }
        },
        {
          "name": "たいらスキー場 (Taira)",
          "snow": 0,
          "prefecture": "富山県",
          "lat": 36.45,
          "lon": 136.95,
          "scores": {
            "snowfall": 0,
            "snowQuality": 0.3,
            "weather": 0,
            "wind": 0.9683237716209436,
            "visibility": 0.00803405018036071
          }
        },
        {
          "name": "びわ湖バレイ (Biwako Valley)",
          "snow": 0,
          "prefecture": "滋賀県",
          "lat": 35.203,
          "lon": 135.907,
          "scores": {
            "snowfall": 0,
            "snowQuality": 0.2,
            "weather": 0,
            "wind": 0.826353352980995,
            "visibility": 0.9999999999999827
          }
        },
        {
          "name": "グランスノー奥伊吹 (Okuibuki)",
          "snow": 0,
          "prefecture": "滋賀県",
          "lat": 35.522,
          "lon": 136.3872,
          "scores": {
            "snowfall": 0,
            "snowQuality": 0.3,
            "weather": 0,
            "wind": 0.9404756340234984,
            "visibility": 1
          }
        },
        {
          "name": "箱館山スキー場 (Hakodateyama)",
          "snow": 0,
          "prefecture": "滋賀県",
          "lat": 35.455,
          "lon": 136.035,
          "scores": {
            "snowfall": 0,
            "snowQuality": 0.2,
            "weather": 0,
            "wind": 0.24232036099629511,
            "visibility": 0.017157727446265526
          }
        },
        {
          "name": "ハチ北高原スキー場 (Hachi Kita)",
          "snow": 0,
          "prefecture": "兵庫県",
          "lat": 35.4045,
          "lon": 134.558,
          "scores": {
            "snowfall": 0,
            "snowQuality": 0.3,
            "weather": 0,
            "wind": 0.8849332679544502,
            "visibility": 0.9999999999999984
          }
        },
        {
          "name": "スカイバレースキー場 (Sky Valley)",
          "snow": 0,
          "prefecture": "兵庫県",
          "lat": 35.4489,
          "lon": 134.5458,
          "scores": {
            "snowfall": 0,
            "snowQuality": 0.3,
            "weather": 0,
            "wind": 0.907207046882843,
            "visibility": 0.9999999999999984
          }
        },
        {
          "name": "おじろスキー場 (Ojiro)",
          "snow": 0,
          "prefecture": "兵庫県",
          "lat": 35.425,
          "lon": 134.585,
          "scores": {
            "snowfall": 0,
            "snowQuality": 0.3,
            "weather": 0,
            "wind": 0.907207046882843,
            "visibility": 0.9999999999999984
          }
        },
        {
          "name": "ちくさ高原スキー場 (Chikusa)",
          "snow": 0,
          "prefecture": "兵庫県",
          "lat": 35.185,
          "lon": 134.455,
          "scores": {
            "snowfall": 0,
            "snowQuality": 0.3,
            "weather": 0.8,
            "wind": 0.9020311957024462,
            "visibility": 0.999999999999905
          }
        },
        {
          "name": "峰山高原リゾート (Mineyama)",
          "snow": 0,
          "prefecture": "兵庫県",
          "lat": 35.155,
          "lon": 134.705,
          "scores": {
            "snowfall": 0,
            "snowQuality": 0.3,
            "weather": 0.8,
            "wind": 0.8849332679544502,
            "visibility": 0.9999999999999996
          }
        },
        {
          "name": "氷ノ山国際スキー場 (Hyonosen)",
          "snow": 0,
          "prefecture": "兵庫県",
          "lat": 35.355,
          "lon": 134.525,
          "scores": {
            "snowfall": 0,
            "snowQuality": 0.7,
            "weather": 0,
            "wind": 0.9404756340234984,
            "visibility": 0.999999999999905
          }
        },
        {
          "name": "恐羅漢スノーパーク (Osorakan)",
          "snow": 0,
          "prefecture": "広島県",
          "lat": 34.5957,
          "lon": 132.1466,
          "scores": {
            "snowfall": 0,
            "snowQuality": 0.3,
            "weather": 0.8,
            "wind": 0.7989910002494707,
            "visibility": 1
          }
        },
        {
          "name": "めがひらスキー場 (Megahira)",
          "snow": 0,
          "prefecture": "広島県",
          "lat": 34.4533,
          "lon": 132.1158,
          "scores": {
            "snowfall": 0,
            "snowQuality": 0.3,
            "weather": 0.8,
            "wind": 0.7989910002494707,
            "visibility": 1
          }
        },
        {
          "name": "芸北高原大佐スキー場 (Osa)",
          "snow": 0,
          "prefecture": "広島県",
          "lat": 34.7479,
          "lon": 132.2203,
          "scores": {
            "snowfall": 0,
            "snowQuality": 0.3,
            "weather": 0.8,
            "wind": 0.7790261077798122,
            "visibility": 0.9999999999999987
          }
        },
        {
          "name": "ユートピアサイオト (Saioto)",
          "snow": 0,
          "prefecture": "広島県",
          "lat": 34.725,
          "lon": 132.355,
          "scores": {
            "snowfall": 0,
            "snowQuality": 0.3,
            "weather": 0.8,
            "wind": 0.8175744761936437,
            "visibility": 0.9999999999999987
          }
        },
        {
          "name": "やわたハイランド191 (Yawata)",
          "snow": 0,
          "prefecture": "広島県",
          "lat": 34.6946,
          "lon": 132.16,
          "scores": {
            "snowfall": 0,
            "snowQuality": 0.3,
            "weather": 0.8,
            "wind": 0.7790261077798122,
            "visibility": 0.9999999999999987
          }
        }
      ]
    },
    {
      "date": "2026-03-27",
      "display_date": "3/27 (金)",
      "rankings": [
        {
          "name": "八甲田スキー場 (Hakkoda)",
          "snow": 0.4,
          "prefecture": "青森県",
          "lat": 40.6868,
          "lon": 140.8654,
          "scores": {
            "snowfall": 0.005113300232962788,
            "snowQuality": 0.7,
            "weather": 0,
            "wind": 0.9843267119339514,
            "visibility": 1
          }
        },
        {
          "name": "マウンテンフィールド宮城蔵王すみかわ (Sumikawa)",
          "snow": 0.4,
          "prefecture": "宮城県",
          "lat": 38.125,
          "lon": 140.482,
          "scores": {
            "snowfall": 0.005113300232962788,
            "snowQuality": 0.7,
            "weather": 0.5,
            "wind": 0.988341583445167,
            "visibility": 0.9996396232124393
          }
        },
        {
          "name": "日光湯元温泉スキー場 (Nikko Yumoto)",
          "snow": 0.3,
          "prefecture": "栃木県",
          "lat": 36.805,
          "lon": 139.42,
          "scores": {
            "snowfall": 0.00407330591495727,
            "snowQuality": 0.7,
            "weather": 0.8,
            "wind": 0.9776865613009676,
            "visibility": 0.9999998668780397
          }
        },
        {
          "name": "万座温泉スキー場 (Manza Onsen)",
          "snow": 0.2,
          "prefecture": "群馬県",
          "lat": 36.6341,
          "lon": 138.5133,
          "scores": {
            "snowfall": 0.0030420318446055224,
            "snowQuality": 0.7,
            "weather": 0.8,
            "wind": 0.9295632691071828,
            "visibility": 1
          }
        },
        {
          "name": "車山高原SKYPARK (Kurumayama)",
          "snow": 0.1,
          "prefecture": "長野県",
          "lat": 36.105,
          "lon": 138.205,
          "scores": {
            "snowfall": 0.0010054320545488603,
            "snowQuality": 0.7,
            "weather": 0.8,
            "wind": 0.9525741268224334,
            "visibility": 1
          }
        },
        {
          "name": "ニセコユナイテッド (Niseko United)",
          "snow": 0,
          "prefecture": "北海道",
          "lat": 42.8631,
          "lon": 140.7042,
          "scores": {
            "snowfall": 0,
            "snowQuality": 0.7,
            "weather": 0,
            "wind": 0.7989910002494707,
            "visibility": 0.9999998710705045
          }
        },
        {
          "name": "ルスツリゾート (Rusutsu)",
          "snow": 0,
          "prefecture": "北海道",
          "lat": 42.7533,
          "lon": 140.9029,
          "scores": {
            "snowfall": 0,
            "snowQuality": 0.7,
            "weather": 0,
            "wind": 0.8581489350995123,
            "visibility": 0.009121117318602361
          }
        },
        {
          "name": "富良野スキー場 (Furano)",
          "snow": 0,
          "prefecture": "北海道",
          "lat": 43.3243,
          "lon": 142.3456,
          "scores": {
            "snowfall": 0,
            "snowQuality": 0.7,
            "weather": 0,
            "wind": 0.9121360851706988,
            "visibility": 0.9999999999999956
          }
        },
        {
          "name": "キロロスノーワールド (Kiroro)",
          "snow": 0,
          "prefecture": "北海道",
          "lat": 43.0722,
          "lon": 140.9781,
          "scores": {
            "snowfall": 0,
            "snowQuality": 0.7,
            "weather": 0.8,
            "wind": 0.826353352980995,
            "visibility": 1
          }
        },
        {
          "name": "札幌国際スキー場 (Sapporo Kokusai)",
          "snow": 0,
          "prefecture": "北海道",
          "lat": 43.0724,
          "lon": 141.0827,
          "scores": {
            "snowfall": 0,
            "snowQuality": 0.7,
            "weather": 0,
            "wind": 0.9718047120298574,
            "visibility": 1
          }
        },
        {
          "name": "トマムスキー場 (Tomamu)",
          "snow": 0,
          "prefecture": "北海道",
          "lat": 43.0628,
          "lon": 142.6322,
          "scores": {
            "snowfall": 0,
            "snowQuality": 0.7,
            "weather": 0,
            "wind": 0.9333919644249093,
            "visibility": 0.9999999999999378
          }
        },
        {
          "name": "サッポロテイネ (Sapporo Teine)",
          "snow": 0,
          "prefecture": "北海道",
          "lat": 43.0973,
          "lon": 141.2044,
          "scores": {
            "snowfall": 0,
            "snowQuality": 0.7,
            "weather": 0,
            "wind": 0.9212896628294647,
            "visibility": 0.9999979629381076
          }
        },
        {
          "name": "カムイスキーリンクス (Kamui)",
          "snow": 0,
          "prefecture": "北海道",
          "lat": 43.6444,
          "lon": 142.2283,
          "scores": {
            "snowfall": 0,
            "snowQuality": 0.7,
            "weather": 0,
            "wind": 0.8429045311145473,
            "visibility": 1
          }
        },
        {
          "name": "サホロリゾート (Sahoro)",
          "snow": 0,
          "prefecture": "北海道",
          "lat": 43.1749,
          "lon": 142.8076,
          "scores": {
            "snowfall": 0,
            "snowQuality": 0.7,
            "weather": 0,
            "wind": 0.9333919644249093,
            "visibility": 0.9999999992830393
          }
        },
        {
          "name": "ニセコモイワスキー場 (Niseko Moiwa)",
          "snow": 0,
          "prefecture": "北海道",
          "lat": 42.855,
          "lon": 140.638,
          "scores": {
            "snowfall": 0,
            "snowQuality": 0.7,
            "weather": 0,
            "wind": 0.6456563062257954,
            "visibility": 0.9999998710705045
          }
        },
        {
          "name": "大雪山旭岳ロープウェイ (Asahidake)",
          "snow": 0,
          "prefecture": "北海道",
          "lat": 43.6542,
          "lon": 142.7964,
          "scores": {
            "snowfall": 0,
            "snowQuality": 0.3,
            "weather": 0,
            "wind": 0.826353352980995,
            "visibility": 1
          }
        },
        {
          "name": "青森スプリング (Aomori Spring)",
          "snow": 0,
          "prefecture": "青森県",
          "lat": 40.7303,
          "lon": 140.2479,
          "scores": {
            "snowfall": 0,
            "snowQuality": 0.3,
            "weather": 0,
            "wind": 0.973403006423134,
            "visibility": 1
          }
        },
        {
          "name": "モヤヒルズ (Moya Hills)",
          "snow": 0,
          "prefecture": "青森県",
          "lat": 40.7275,
          "lon": 140.8033,
          "scores": {
            "snowfall": 0,
            "snowQuality": 0.3,
            "weather": 0,
            "wind": 0.9868746816628972,
            "visibility": 1
          }
        },
        {
          "name": "大鰐温泉スキー場 (Owani Onsen)",
          "snow": 0,
          "prefecture": "青森県",
          "lat": 40.505,
          "lon": 140.556,
          "scores": {
            "snowfall": 0,
            "snowQuality": 0.3,
            "weather": 0,
            "wind": 0.9843267119339514,
            "visibility": 1
          }
        },
        {
          "name": "安比高原スキー場 (Appi Kogen)",
          "snow": 0,
          "prefecture": "岩手県",
          "lat": 40.0019,
          "lon": 140.9749,
          "scores": {
            "snowfall": 0,
            "snowQuality": 0.7,
            "weather": 0,
            "wind": 0.9552122969502131,
            "visibility": 0.9999999983524888
          }
        },
        {
          "name": "夏油高原スキー場 (Geto Kogen)",
          "snow": 0,
          "prefecture": "岩手県",
          "lat": 39.2311,
          "lon": 140.9419,
          "scores": {
            "snowfall": 0,
            "snowQuality": 0.7,
            "weather": 0,
            "wind": 0.9801596942659225,
            "visibility": 0.9999999999999829
          }
        },
        {
          "name": "雫石スキー場 (Shizukuishi)",
          "snow": 0,
          "prefecture": "岩手県",
          "lat": 39.718,
          "lon": 140.9575,
          "scores": {
            "snowfall": 0,
            "snowQuality": 0.3,
            "weather": 0,
            "wind": 0.9789586529795317,
            "visibility": 0.8228824903813154
          }
        },
        {
          "name": "八幡平リゾート (Hachimantai)",
          "snow": 0,
          "prefecture": "岩手県",
          "lat": 39.9075,
          "lon": 141.0264,
          "scores": {
            "snowfall": 0,
            "snowQuality": 0.7,
            "weather": 0,
            "wind": 0.6856801139382539,
            "visibility": 0.9999999983524888
          }
        },
        {
          "name": "岩手高原スノーパーク (Iwate Kogen)",
          "snow": 0,
          "prefecture": "岩手県",
          "lat": 39.715,
          "lon": 140.98,
          "scores": {
            "snowfall": 0,
            "snowQuality": 0.3,
            "weather": 0,
            "wind": 0.9683237716209436,
            "visibility": 0.8228824903813154
          }
        },
        {
          "name": "みやぎ蔵王えぼし (Eboshi)",
          "snow": 0,
          "prefecture": "宮城県",
          "lat": 38.1257,
          "lon": 140.5422,
          "scores": {
            "snowfall": 0,
            "snowQuality": 0.3,
            "weather": 0,
            "wind": 0.9623121094913941,
            "visibility": 0.9996396232124393
          }
        },
        {
          "name": "スプリングバレー仙台泉 (Spring Valley)",
          "snow": 0,
          "prefecture": "宮城県",
          "lat": 38.423,
          "lon": 140.7226,
          "scores": {
            "snowfall": 0,
            "snowQuality": 0.7,
            "weather": 0,
            "wind": 0.9843267119339514,
            "visibility": 0.9999999314704
          }
        },
        {
          "name": "オニコウベスキー場 (Onikoube)",
          "snow": 0,
          "prefecture": "宮城県",
          "lat": 38.802,
          "lon": 140.645,
          "scores": {
            "snowfall": 0,
            "snowQuality": 0.7,
            "weather": 0,
            "wind": 0.9623121094913941,
            "visibility": 0.9999988548800253
          }
        },
        {
          "name": "たざわ湖スキー場 (Tazawako)",
          "snow": 0,
          "prefecture": "秋田県",
          "lat": 39.757,
          "lon": 140.758,
          "scores": {
            "snowfall": 0,
            "snowQuality": 0.7,
            "weather": 0,
            "wind": 0.9212896628294647,
            "visibility": 0.9431066011649731
          }
        },
        {
          "name": "ジュネス栗駒 (Jeunesse)",
          "snow": 0,
          "prefecture": "秋田県",
          "lat": 39.1822,
          "lon": 140.6713,
          "scores": {
            "snowfall": 0,
            "snowQuality": 0.3,
            "weather": 0,
            "wind": 0.9577102281579662,
            "visibility": 0.9980847690581259
          }
        },
        {
          "name": "阿仁スキー場 (Ani)",
          "snow": 0,
          "prefecture": "秋田県",
          "lat": 39.953,
          "lon": 140.354,
          "scores": {
            "snowfall": 0,
            "snowQuality": 0.3,
            "weather": 0.8,
            "wind": 0.9295632691071828,
            "visibility": 1
          }
        },
        {
          "name": "太平山スキー場オーパス (Opas)",
          "snow": 0,
          "prefecture": "秋田県",
          "lat": 39.78,
          "lon": 140.18,
          "scores": {
            "snowfall": 0,
            "snowQuality": 0.3,
            "weather": 0,
            "wind": 0.9212896628294647,
            "visibility": 1
          }
        },
        {
          "name": "蔵王温泉スキー場 (Zao Onsen)",
          "snow": 0,
          "prefecture": "山形県",
          "lat": 38.1636,
          "lon": 140.4042,
          "scores": {
            "snowfall": 0,
            "snowQuality": 0.7,
            "weather": 0,
            "wind": 0.9212896628294647,
            "visibility": 0.9996396232124393
          }
        },
        {
          "name": "天元台高原 (Tengendai)",
          "snow": 0,
          "prefecture": "山形県",
          "lat": 37.7983,
          "lon": 140.1197,
          "scores": {
            "snowfall": 0,
            "snowQuality": 0.3,
            "weather": 0.8,
            "wind": 0.9577102281579662,
            "visibility": 1
          }
        },
        {
          "name": "ジャングルジャングル (Jungle Jungle)",
          "snow": 0,
          "prefecture": "山形県",
          "lat": 38.455,
          "lon": 140.455,
          "scores": {
            "snowfall": 0,
            "snowQuality": 0.3,
            "weather": 0,
            "wind": 0.9404756340234984,
            "visibility": 0.9998053280436042
          }
        },
        {
          "name": "月山スキー場 (Gassan)",
          "snow": 0,
          "prefecture": "山形県",
          "lat": 38.51892,
          "lon": 140.00662,
          "scores": {
            "snowfall": 0,
            "snowQuality": 0.7,
            "weather": 0,
            "wind": 0.7349725994665188,
            "visibility": 0.9999999999999998
          }
        },
        {
          "name": "星野リゾート ネコマ マウンテン (Nekoma)",
          "snow": 0,
          "prefecture": "福島県",
          "lat": 37.6042,
          "lon": 140.0381,
          "scores": {
            "snowfall": 0,
            "snowQuality": 0.7,
            "weather": 0.8,
            "wind": 0.826353352980995,
            "visibility": 1
          }
        },
        {
          "name": "グランデコスノーリゾート (Grandeco)",
          "snow": 0,
          "prefecture": "福島県",
          "lat": 37.6853,
          "lon": 140.0933,
          "scores": {
            "snowfall": 0,
            "snowQuality": 0.7,
            "weather": 0.8,
            "wind": 0.9295632691071828,
            "visibility": 1
          }
        },
        {
          "name": "猪苗代スキー場 (Inawashiro)",
          "snow": 0,
          "prefecture": "福島県",
          "lat": 37.575,
          "lon": 140.063,
          "scores": {
            "snowfall": 0,
            "snowQuality": 0.3,
            "weather": 0.8,
            "wind": 0.826353352980995,
            "visibility": 1
          }
        },
        {
          "name": "箕輪スキー場 (Minowa)",
          "snow": 0,
          "prefecture": "福島県",
          "lat": 37.64,
          "lon": 140.23,
          "scores": {
            "snowfall": 0,
            "snowQuality": 0.7,
            "weather": 0,
            "wind": 0.9404756340234984,
            "visibility": 0.999999885649794
          }
        },
        {
          "name": "沼尻スキー場 (Numajiri)",
          "snow": 0,
          "prefecture": "福島県",
          "lat": 37.625,
          "lon": 140.245,
          "scores": {
            "snowfall": 0,
            "snowQuality": 0.7,
            "weather": 0,
            "wind": 0.9404756340234984,
            "visibility": 0.999999885649794
          }
        },
        {
          "name": "会津高原だいくらスキー場 (Daikura)",
          "snow": 0,
          "prefecture": "福島県",
          "lat": 37.155,
          "lon": 139.705,
          "scores": {
            "snowfall": 0,
            "snowQuality": 0.3,
            "weather": 0.8,
            "wind": 0.9623121094913941,
            "visibility": 1
          }
        },
        {
          "name": "ハンターマウンテン塩原 (Hunter Mt)",
          "snow": 0,
          "prefecture": "栃木県",
          "lat": 36.9377,
          "lon": 139.7744,
          "scores": {
            "snowfall": 0,
            "snowQuality": 0.7,
            "weather": 0,
            "wind": 0.9852259683067269,
            "visibility": 1
          }
        },
        {
          "name": "マウントジーンズ那須 (Mt.JEANS)",
          "snow": 0,
          "prefecture": "栃木県",
          "lat": 37.1264,
          "lon": 139.988,
          "scores": {
            "snowfall": 0,
            "snowQuality": 0.7,
            "weather": 0.8,
            "wind": 0.9833736438921183,
            "visibility": 1
          }
        },
        {
          "name": "エーデルワイススキーリゾート (Edelweiss)",
          "snow": 0,
          "prefecture": "栃木県",
          "lat": 36.932,
          "lon": 139.755,
          "scores": {
            "snowfall": 0,
            "snowQuality": 0.7,
            "weather": 0,
            "wind": 0.9852259683067269,
            "visibility": 1
          }
        },
        {
          "name": "丸沼高原スキー場 (Marunuma)",
          "snow": 0,
          "prefecture": "群馬県",
          "lat": 36.8183,
          "lon": 139.3364,
          "scores": {
            "snowfall": 0,
            "snowQuality": 0.7,
            "weather": 0.8,
            "wind": 0.9497887268097336,
            "visibility": 1
          }
        },
        {
          "name": "川場スキー場 (Kawaba)",
          "snow": 0,
          "prefecture": "群馬県",
          "lat": 36.8122,
          "lon": 139.1083,
          "scores": {
            "snowfall": 0,
            "snowQuality": 0.3,
            "weather": 0.8,
            "wind": 0.9370266439430035,
            "visibility": 1
          }
        },
        {
          "name": "たんばらスキーパーク (Tambara)",
          "snow": 0,
          "prefecture": "群馬県",
          "lat": 36.7867,
          "lon": 139.0667,
          "scores": {
            "snowfall": 0,
            "snowQuality": 0.3,
            "weather": 0.8,
            "wind": 0.9552122969502131,
            "visibility": 1
          }
        },
        {
          "name": "ノルン水上スキー場 (Norn Minakami)",
          "snow": 0,
          "prefecture": "群馬県",
          "lat": 36.8042,
          "lon": 138.9722,
          "scores": {
            "snowfall": 0,
            "snowQuality": 0.3,
            "weather": 0.8,
            "wind": 0.9718047120298574,
            "visibility": 1
          }
        },
        {
          "name": "ホワイトワールド尾瀬岩鞍 (Oze Iwakura)",
          "snow": 0,
          "prefecture": "群馬県",
          "lat": 36.84,
          "lon": 139.22,
          "scores": {
            "snowfall": 0,
            "snowQuality": 0.7,
            "weather": 0.8,
            "wind": 0.9552122969502131,
            "visibility": 1
          }
        },
        {
          "name": "かたしな高原スキー場 (Katashina)",
          "snow": 0,
          "prefecture": "群馬県",
          "lat": 36.83,
          "lon": 139.23,
          "scores": {
            "snowfall": 0,
            "snowQuality": 0.3,
            "weather": 0.8,
            "wind": 0.9468488636019362,
            "visibility": 1
          }
        },
        {
          "name": "群馬みなかみほうだいぎスキー場 (Houdaigi)",
          "snow": 0,
          "prefecture": "群馬県",
          "lat": 36.852,
          "lon": 139.055,
          "scores": {
            "snowfall": 0,
            "snowQuality": 0.3,
            "weather": 0.8,
            "wind": 0.9776865613009676,
            "visibility": 1
          }
        },
        {
          "name": "奥利根スノーパーク (Okutone)",
          "snow": 0,
          "prefecture": "群馬県",
          "lat": 36.805,
          "lon": 139.005,
          "scores": {
            "snowfall": 0,
            "snowQuality": 0.3,
            "weather": 0.8,
            "wind": 0.9718047120298574,
            "visibility": 1
          }
        },
        {
          "name": "苗場スキー場 (Naeba)",
          "snow": 0,
          "prefecture": "新潟県",
          "lat": 36.7933,
          "lon": 138.7844,
          "scores": {
            "snowfall": 0,
            "snowQuality": 0.3,
            "weather": 0.8,
            "wind": 0.9370266439430035,
            "visibility": 1
          }
        },
        {
          "name": "かぐらスキー場 (Kagura)",
          "snow": 0,
          "prefecture": "新潟県",
          "lat": 36.8375,
          "lon": 138.7778,
          "scores": {
            "snowfall": 0,
            "snowQuality": 0.3,
            "weather": 0,
            "wind": 0.9404756340234984,
            "visibility": 1
          }
        },
        {
          "name": "GALA湯沢 (GALA Yuzawa)",
          "snow": 0,
          "prefecture": "新潟県",
          "lat": 36.9405,
          "lon": 138.7944,
          "scores": {
            "snowfall": 0,
            "snowQuality": 0.3,
            "weather": 0,
            "wind": 0.9468488636019362,
            "visibility": 1
          }
        },
        {
          "name": "石打丸山スキー場 (Ishiuchi)",
          "snow": 0,
          "prefecture": "新潟県",
          "lat": 36.9892,
          "lon": 138.8028,
          "scores": {
            "snowfall": 0,
            "snowQuality": 0.2,
            "weather": 0,
            "wind": 0.9437470664268327,
            "visibility": 1
          }
        },
        {
          "name": "ロッテアライリゾート (Lotte Arai)",
          "snow": 0,
          "prefecture": "新潟県",
          "lat": 36.99064,
          "lon": 138.18138,
          "scores": {
            "snowfall": 0,
            "snowQuality": 0.3,
            "weather": 0.8,
            "wind": 0.9497887268097336,
            "visibility": 1
          }
        },
        {
          "name": "妙高杉ノ原スキー場 (Myoko Suginohara)",
          "snow": 0,
          "prefecture": "新潟県",
          "lat": 36.8336,
          "lon": 138.1633,
          "scores": {
            "snowfall": 0,
            "snowQuality": 0.3,
            "weather": 0.8,
            "wind": 0.9020311957024462,
            "visibility": 1
          }
        },
        {
          "name": "舞子スノーリゾート (Maiko)",
          "snow": 0,
          "prefecture": "新潟県",
          "lat": 36.953,
          "lon": 138.835,
          "scores": {
            "snowfall": 0,
            "snowQuality": 0.3,
            "weather": 0,
            "wind": 0.9255320548339719,
            "visibility": 1
          }
        },
        {
          "name": "湯沢高原スキー場 (Yuzawa Kogen)",
          "snow": 0,
          "prefecture": "新潟県",
          "lat": 36.945,
          "lon": 138.805,
          "scores": {
            "snowfall": 0,
            "snowQuality": 0.2,
            "weather": 0,
            "wind": 0.9468488636019362,
            "visibility": 1
          }
        },
        {
          "name": "神立スノーリゾート (Kandatsu)",
          "snow": 0,
          "prefecture": "新潟県",
          "lat": 36.92,
          "lon": 138.835,
          "scores": {
            "snowfall": 0,
            "snowQuality": 0.3,
            "weather": 0,
            "wind": 0.9468488636019362,
            "visibility": 1
          }
        },
        {
          "name": "ムイカスノーリゾート (Muika)",
          "snow": 0,
          "prefecture": "新潟県",
          "lat": 37.055,
          "lon": 138.955,
          "scores": {
            "snowfall": 0,
            "snowQuality": 0.2,
            "weather": 0,
            "wind": 0.9497887268097336,
            "visibility": 1
          }
        },
        {
          "name": "シャルマン火打スキー場 (Charmant)",
          "snow": 0,
          "prefecture": "新潟県",
          "lat": 36.985,
          "lon": 138.055,
          "scores": {
            "snowfall": 0,
            "snowQuality": 0.7,
            "weather": 0.8,
            "wind": 0.9468488636019362,
            "visibility": 1
          }
        },
        {
          "name": "赤倉観光リゾート (Akakura)",
          "snow": 0,
          "prefecture": "新潟県",
          "lat": 36.885,
          "lon": 138.165,
          "scores": {
            "snowfall": 0,
            "snowQuality": 0.3,
            "weather": 0.8,
            "wind": 0.8965995485417504,
            "visibility": 1
          }
        },
        {
          "name": "関温泉スキー場 (Seki Onsen)",
          "snow": 0,
          "prefecture": "新潟県",
          "lat": 36.895,
          "lon": 138.135,
          "scores": {
            "snowfall": 0,
            "snowQuality": 0.7,
            "weather": 0.8,
            "wind": 0.9644288107273639,
            "visibility": 1
          }
        },
        {
          "name": "上越国際スキー場 (Joetsu Kokusai)",
          "snow": 0,
          "prefecture": "新潟県",
          "lat": 37.015,
          "lon": 138.85,
          "scores": {
            "snowfall": 0,
            "snowQuality": 0.2,
            "weather": 0,
            "wind": 0.9255320548339719,
            "visibility": 1
          }
        },
        {
          "name": "キューピッドバレイスキー場 (Cupid Valley)",
          "snow": 0,
          "prefecture": "新潟県",
          "lat": 37.05513,
          "lon": 138.4845,
          "scores": {
            "snowfall": 0,
            "snowQuality": 0.3,
            "weather": 0.8,
            "wind": 0.907207046882843,
            "visibility": 1
          }
        },
        {
          "name": "白馬八方尾根スキー場 (Hakuba Happo)",
          "snow": 0,
          "prefecture": "長野県",
          "lat": 36.7018,
          "lon": 137.8327,
          "scores": {
            "snowfall": 0,
            "snowQuality": 0.3,
            "weather": 0.8,
            "wind": 0.9437470664268327,
            "visibility": 1
          }
        },
        {
          "name": "白馬五竜スキー場 (Hakuba Goryu)",
          "snow": 0,
          "prefecture": "長野県",
          "lat": 36.6572,
          "lon": 137.8306,
          "scores": {
            "snowfall": 0,
            "snowQuality": 0.3,
            "weather": 0.8,
            "wind": 0.9701133201963639,
            "visibility": 1
          }
        },
        {
          "name": "栂池高原スキー場 (Tsugaike)",
          "snow": 0,
          "prefecture": "長野県",
          "lat": 36.7536,
          "lon": 137.8767,
          "scores": {
            "snowfall": 0,
            "snowQuality": 0.3,
            "weather": 0.8,
            "wind": 0.9121360851706988,
            "visibility": 1
          }
        },
        {
          "name": "野沢温泉スキー場 (Nozawa Onsen)",
          "snow": 0,
          "prefecture": "長野県",
          "lat": 36.9197,
          "lon": 138.4485,
          "scores": {
            "snowfall": 0,
            "snowQuality": 0.3,
            "weather": 0,
            "wind": 0.8786811621082631,
            "visibility": 1
          }
        },
        {
          "name": "志賀高原 焼額山 (Shiga Kogen)",
          "snow": 0,
          "prefecture": "長野県",
          "lat": 36.7621,
          "lon": 138.5367,
          "scores": {
            "snowfall": 0,
            "snowQuality": 0.7,
            "weather": 0.8,
            "wind": 0.9497887268097336,
            "visibility": 1
          }
        },
        {
          "name": "菅平高原スノーリゾート (Sugadaira)",
          "snow": 0,
          "prefecture": "長野県",
          "lat": 36.5414,
          "lon": 138.3581,
          "scores": {
            "snowfall": 0,
            "snowQuality": 0.7,
            "weather": 0.8,
            "wind": 0.9212896628294647,
            "visibility": 1
          }
        },
        {
          "name": "軽井沢プリンスホテルスキー場 (Karuizawa)",
          "snow": 0,
          "prefecture": "長野県",
          "lat": 36.3353,
          "lon": 138.6339,
          "scores": {
            "snowfall": 0,
            "snowQuality": 0.3,
            "weather": 0,
            "wind": 0.9404756340234984,
            "visibility": 1
          }
        },
        {
          "name": "白馬コルチナスキー場 (Cortina)",
          "snow": 0,
          "prefecture": "長野県",
          "lat": 36.785,
          "lon": 137.885,
          "scores": {
            "snowfall": 0,
            "snowQuality": 0.3,
            "weather": 0.8,
            "wind": 0.8786811621082631,
            "visibility": 1
          }
        },
        {
          "name": "白馬乗鞍温泉スキー場 (Norikura)",
          "snow": 0,
          "prefecture": "長野県",
          "lat": 36.775,
          "lon": 137.865,
          "scores": {
            "snowfall": 0,
            "snowQuality": 0.7,
            "weather": 0.8,
            "wind": 0.8786811621082631,
            "visibility": 1
          }
        },
        {
          "name": "白馬岩岳スノーフィールド (Iwatake)",
          "snow": 0,
          "prefecture": "長野県",
          "lat": 36.715,
          "lon": 137.865,
          "scores": {
            "snowfall": 0,
            "snowQuality": 0.3,
            "weather": 0.8,
            "wind": 0.9437470664268327,
            "visibility": 1
          }
        },
        {
          "name": "Hakuba47",
          "snow": 0,
          "prefecture": "長野県",
          "lat": 36.685,
          "lon": 137.835,
          "scores": {
            "snowfall": 0,
            "snowQuality": 0.3,
            "weather": 0.8,
            "wind": 0.9437470664268327,
            "visibility": 1
          }
        },
        {
          "name": "竜王スキーパーク (Ryuoo)",
          "snow": 0,
          "prefecture": "長野県",
          "lat": 36.805,
          "lon": 138.455,
          "scores": {
            "snowfall": 0,
            "snowQuality": 0.3,
            "weather": 0.8,
            "wind": 0.8849332679544502,
            "visibility": 1
          }
        },
        {
          "name": "斑尾高原スキー場 (Madarao)",
          "snow": 0,
          "prefecture": "長野県",
          "lat": 36.845,
          "lon": 138.305,
          "scores": {
            "snowfall": 0,
            "snowQuality": 0.3,
            "weather": 0.8,
            "wind": 0.9121360851706988,
            "visibility": 1
          }
        },
        {
          "name": "タングラムスキーサーカス (Tangram)",
          "snow": 0,
          "prefecture": "長野県",
          "lat": 36.855,
          "lon": 138.285,
          "scores": {
            "snowfall": 0,
            "snowQuality": 0.3,
            "weather": 0.8,
            "wind": 0.9121360851706988,
            "visibility": 1
          }
        },
        {
          "name": "戸隠スキー場 (Togakushi)",
          "snow": 0,
          "prefecture": "長野県",
          "lat": 36.765,
          "lon": 138.085,
          "scores": {
            "snowfall": 0,
            "snowQuality": 0.3,
            "weather": 0.8,
            "wind": 0.9852259683067269,
            "visibility": 1
          }
        },
        {
          "name": "奥志賀高原スキー場 (Okushiga)",
          "snow": 0,
          "prefecture": "長野県",
          "lat": 36.78,
          "lon": 138.54,
          "scores": {
            "snowfall": 0,
            "snowQuality": 0.7,
            "weather": 0.8,
            "wind": 0.9497887268097336,
            "visibility": 1
          }
        },
        {
          "name": "ふじてんスノーリゾート (Fujiten)",
          "snow": 0,
          "prefecture": "山梨県",
          "lat": 35.4328,
          "lon": 138.6947,
          "scores": {
            "snowfall": 0,
            "snowQuality": 0.3,
            "weather": 0.8,
            "wind": 0.8786811621082631,
            "visibility": 0.9999999999999998
          }
        },
        {
          "name": "サンメドウズ清里 (Sun Meadows)",
          "snow": 0,
          "prefecture": "山梨県",
          "lat": 35.9381,
          "lon": 138.4069,
          "scores": {
            "snowfall": 0,
            "snowQuality": 0.7,
            "weather": 0,
            "wind": 0.9333919644249093,
            "visibility": 1
          }
        },
        {
          "name": "カムイみさかスキー場 (Misaka)",
          "snow": 0,
          "prefecture": "山梨県",
          "lat": 35.585,
          "lon": 138.655,
          "scores": {
            "snowfall": 0,
            "snowQuality": 0.3,
            "weather": 0,
            "wind": 0.960074666047186,
            "visibility": 0.9999999999999998
          }
        },
        {
          "name": "高鷲スノーパーク (Takasu Snow Park)",
          "snow": 0,
          "prefecture": "岐阜県",
          "lat": 35.998,
          "lon": 136.8773,
          "scores": {
            "snowfall": 0,
            "snowQuality": 0.3,
            "weather": 1,
            "wind": 0.9295632691071828,
            "visibility": 1
          }
        },
        {
          "name": "ダイナランド (Dynaland)",
          "snow": 0,
          "prefecture": "岐阜県",
          "lat": 35.9967,
          "lon": 136.8606,
          "scores": {
            "snowfall": 0,
            "snowQuality": 0.3,
            "weather": 1,
            "wind": 0.9525741268224334,
            "visibility": 1
          }
        },
        {
          "name": "鷲ヶ岳スキー場 (Washigatake)",
          "snow": 0,
          "prefecture": "岐阜県",
          "lat": 35.9794,
          "lon": 136.8483,
          "scores": {
            "snowfall": 0,
            "snowQuality": 0.3,
            "weather": 1,
            "wind": 0.9295632691071828,
            "visibility": 1
          }
        },
        {
          "name": "ホワイトピアたかす (White Pia)",
          "snow": 0,
          "prefecture": "岐阜県",
          "lat": 35.956,
          "lon": 136.935,
          "scores": {
            "snowfall": 0,
            "snowQuality": 0.3,
            "weather": 1,
            "wind": 0.9020311957024462,
            "visibility": 1
          }
        },
        {
          "name": "ウイングヒルズ白鳥 (Wing Hills)",
          "snow": 0,
          "prefecture": "岐阜県",
          "lat": 35.9672,
          "lon": 136.7906,
          "scores": {
            "snowfall": 0,
            "snowQuality": 0.3,
            "weather": 1,
            "wind": 0.9255320548339719,
            "visibility": 1
          }
        },
        {
          "name": "スノーウェーブパーク白鳥高原 (Shiratori Kogen)",
          "snow": 0,
          "prefecture": "岐阜県",
          "lat": 35.9397,
          "lon": 136.7864,
          "scores": {
            "snowfall": 0,
            "snowQuality": 0.3,
            "weather": 1,
            "wind": 0.9255320548339719,
            "visibility": 1
          }
        },
        {
          "name": "めいほうスキー場 (Meiho)",
          "snow": 0,
          "prefecture": "岐阜県",
          "lat": 35.9418,
          "lon": 137.043,
          "scores": {
            "snowfall": 0,
            "snowQuality": 0.3,
            "weather": 0.8,
            "wind": 0.9683237716209436,
            "visibility": 1
          }
        },
        {
          "name": "ほおのき平スキー場 (Honoki Daira)",
          "snow": 0,
          "prefecture": "岐阜県",
          "lat": 36.1436,
          "lon": 137.4528,
          "scores": {
            "snowfall": 0,
            "snowQuality": 0.7,
            "weather": 0.8,
            "wind": 0.9552122969502131,
            "visibility": 1
          }
        },
        {
          "name": "ひるがの高原スキー場 (Hirugano)",
          "snow": 0,
          "prefecture": "岐阜県",
          "lat": 35.985,
          "lon": 136.905,
          "scores": {
            "snowfall": 0,
            "snowQuality": 0.3,
            "weather": 1,
            "wind": 0.9333919644249093,
            "visibility": 1
          }
        },
        {
          "name": "飛騨流葉スキー場 (Hida Nagareha)",
          "snow": 0,
          "prefecture": "岐阜県",
          "lat": 36.3077,
          "lon": 137.2449,
          "scores": {
            "snowfall": 0,
            "snowQuality": 0.3,
            "weather": 0.8,
            "wind": 0.9701133201963639,
            "visibility": 1
          }
        },
        {
          "name": "スキージャム勝山 (Ski Jam Katsuyama)",
          "snow": 0,
          "prefecture": "福井県",
          "lat": 36.0733,
          "lon": 136.5556,
          "scores": {
            "snowfall": 0,
            "snowQuality": 0.3,
            "weather": 1,
            "wind": 0.9020311957024462,
            "visibility": 1
          }
        },
        {
          "name": "福井和泉スキー場 (Fukui Izumi)",
          "snow": 0,
          "prefecture": "福井県",
          "lat": 35.9397,
          "lon": 136.69208,
          "scores": {
            "snowfall": 0,
            "snowQuality": 0.3,
            "weather": 0.8,
            "wind": 0.9370266439430035,
            "visibility": 1
          }
        },
        {
          "name": "今庄365スキー場 (Imajo)",
          "snow": 0,
          "prefecture": "福井県",
          "lat": 35.755,
          "lon": 136.155,
          "scores": {
            "snowfall": 0,
            "snowQuality": 0.3,
            "weather": 0.8,
            "wind": 0.9333919644249093,
            "visibility": 1
          }
        },
        {
          "name": "白山セイモアスキー場 (Hakusan Seymour)",
          "snow": 0,
          "prefecture": "石川県",
          "lat": 36.3472,
          "lon": 136.6789,
          "scores": {
            "snowfall": 0,
            "snowQuality": 0.2,
            "weather": 1,
            "wind": 0.9468488636019362,
            "visibility": 1
          }
        },
        {
          "name": "白山一里野温泉スキー場 (Ichirino)",
          "snow": 0,
          "prefecture": "石川県",
          "lat": 36.2683,
          "lon": 136.715,
          "scores": {
            "snowfall": 0,
            "snowQuality": 0.3,
            "weather": 1,
            "wind": 0.9468488636019362,
            "visibility": 1
          }
        },
        {
          "name": "金沢市営医王山スキー場 (Iozen)",
          "snow": 0,
          "prefecture": "石川県",
          "lat": 36.48,
          "lon": 136.7,
          "scores": {
            "snowfall": 0,
            "snowQuality": 0.2,
            "weather": 1,
            "wind": 0.9437470664268327,
            "visibility": 1
          }
        },
        {
          "name": "立山山麓スキー場 (Tateyama Sanroku)",
          "snow": 0,
          "prefecture": "富山県",
          "lat": 36.5747,
          "lon": 137.417,
          "scores": {
            "snowfall": 0,
            "snowQuality": 0.3,
            "weather": 0.8,
            "wind": 0.9333919644249093,
            "visibility": 1
          }
        },
        {
          "name": "IOX-AROSA (イオックスアローザ)",
          "snow": 0,
          "prefecture": "富山県",
          "lat": 36.5149,
          "lon": 136.8209,
          "scores": {
            "snowfall": 0,
            "snowQuality": 0.2,
            "weather": 1,
            "wind": 0.9525741268224334,
            "visibility": 1
          }
        },
        {
          "name": "牛岳温泉スキー場 (Ushidake Onsen)",
          "snow": 0,
          "prefecture": "富山県",
          "lat": 36.5737,
          "lon": 137.057,
          "scores": {
            "snowfall": 0,
            "snowQuality": 0.2,
            "weather": 1,
            "wind": 0.9468488636019362,
            "visibility": 1
          }
        },
        {
          "name": "たいらスキー場 (Taira)",
          "snow": 0,
          "prefecture": "富山県",
          "lat": 36.45,
          "lon": 136.95,
          "scores": {
            "snowfall": 0,
            "snowQuality": 0.3,
            "weather": 1,
            "wind": 0.9437470664268327,
            "visibility": 1
          }
        },
        {
          "name": "びわ湖バレイ (Biwako Valley)",
          "snow": 0,
          "prefecture": "滋賀県",
          "lat": 35.203,
          "lon": 135.907,
          "scores": {
            "snowfall": 0,
            "snowQuality": 0.3,
            "weather": 0.8,
            "wind": 0.9789586529795317,
            "visibility": 1
          }
        },
        {
          "name": "グランスノー奥伊吹 (Okuibuki)",
          "snow": 0,
          "prefecture": "滋賀県",
          "lat": 35.522,
          "lon": 136.3872,
          "scores": {
            "snowfall": 0,
            "snowQuality": 0.3,
            "weather": 0.8,
            "wind": 0.9295632691071828,
            "visibility": 1
          }
        },
        {
          "name": "箱館山スキー場 (Hakodateyama)",
          "snow": 0,
          "prefecture": "滋賀県",
          "lat": 35.455,
          "lon": 136.035,
          "scores": {
            "snowfall": 0,
            "snowQuality": 0.2,
            "weather": 0.8,
            "wind": 0.9255320548339719,
            "visibility": 1
          }
        },
        {
          "name": "ハチ北高原スキー場 (Hachi Kita)",
          "snow": 0,
          "prefecture": "兵庫県",
          "lat": 35.4045,
          "lon": 134.558,
          "scores": {
            "snowfall": 0,
            "snowQuality": 0.2,
            "weather": 0.8,
            "wind": 0.9255320548339719,
            "visibility": 1
          }
        },
        {
          "name": "スカイバレースキー場 (Sky Valley)",
          "snow": 0,
          "prefecture": "兵庫県",
          "lat": 35.4489,
          "lon": 134.5458,
          "scores": {
            "snowfall": 0,
            "snowQuality": 0.2,
            "weather": 0.8,
            "wind": 0.9370266439430035,
            "visibility": 1
          }
        },
        {
          "name": "おじろスキー場 (Ojiro)",
          "snow": 0,
          "prefecture": "兵庫県",
          "lat": 35.425,
          "lon": 134.585,
          "scores": {
            "snowfall": 0,
            "snowQuality": 0.2,
            "weather": 0.8,
            "wind": 0.9370266439430035,
            "visibility": 1
          }
        },
        {
          "name": "ちくさ高原スキー場 (Chikusa)",
          "snow": 0,
          "prefecture": "兵庫県",
          "lat": 35.185,
          "lon": 134.455,
          "scores": {
            "snowfall": 0,
            "snowQuality": 0.2,
            "weather": 0.8,
            "wind": 0.9623121094913941,
            "visibility": 1
          }
        },
        {
          "name": "峰山高原リゾート (Mineyama)",
          "snow": 0,
          "prefecture": "兵庫県",
          "lat": 35.155,
          "lon": 134.705,
          "scores": {
            "snowfall": 0,
            "snowQuality": 0.2,
            "weather": 0.8,
            "wind": 0.9801596942659225,
            "visibility": 1
          }
        },
        {
          "name": "氷ノ山国際スキー場 (Hyonosen)",
          "snow": 0,
          "prefecture": "兵庫県",
          "lat": 35.355,
          "lon": 134.525,
          "scores": {
            "snowfall": 0,
            "snowQuality": 0.3,
            "weather": 0.8,
            "wind": 0.9623121094913941,
            "visibility": 1
          }
        },
        {
          "name": "恐羅漢スノーパーク (Osorakan)",
          "snow": 0,
          "prefecture": "広島県",
          "lat": 34.5957,
          "lon": 132.1466,
          "scores": {
            "snowfall": 0,
            "snowQuality": 0.2,
            "weather": 0.8,
            "wind": 0.9437470664268327,
            "visibility": 1
          }
        },
        {
          "name": "めがひらスキー場 (Megahira)",
          "snow": 0,
          "prefecture": "広島県",
          "lat": 34.4533,
          "lon": 132.1158,
          "scores": {
            "snowfall": 0,
            "snowQuality": 0.2,
            "weather": 0.8,
            "wind": 0.973403006423134,
            "visibility": 1
          }
        },
        {
          "name": "芸北高原大佐スキー場 (Osa)",
          "snow": 0,
          "prefecture": "広島県",
          "lat": 34.7479,
          "lon": 132.2203,
          "scores": {
            "snowfall": 0,
            "snowQuality": 0.2,
            "weather": 0.8,
            "wind": 0.9370266439430035,
            "visibility": 1
          }
        },
        {
          "name": "ユートピアサイオト (Saioto)",
          "snow": 0,
          "prefecture": "広島県",
          "lat": 34.725,
          "lon": 132.355,
          "scores": {
            "snowfall": 0,
            "snowQuality": 0.2,
            "weather": 0.8,
            "wind": 0.9860743596934995,
            "visibility": 1
          }
        },
        {
          "name": "やわたハイランド191 (Yawata)",
          "snow": 0,
          "prefecture": "広島県",
          "lat": 34.6946,
          "lon": 132.16,
          "scores": {
            "snowfall": 0,
            "snowQuality": 0.2,
            "weather": 0.8,
            "wind": 0.9168273035060777,
            "visibility": 1
          }
        }
      ]
    },
    {
      "date": "2026-03-28",
      "display_date": "3/28 (土)",
      "rankings": [
        {
          "name": "トマムスキー場 (Tomamu)",
          "snow": 0.6,
          "prefecture": "北海道",
          "lat": 43.0628,
          "lon": 142.6322,
          "scores": {
            "snowfall": 0.008286134430792312,
            "snowQuality": 0.7,
            "weather": 0.5,
            "wind": 0.7349725994665188,
            "visibility": 0.999999900985556
          }
        },
        {
          "name": "サホロリゾート (Sahoro)",
          "snow": 0.6,
          "prefecture": "北海道",
          "lat": 43.1749,
          "lon": 142.8076,
          "scores": {
            "snowfall": 0.00936153907398761,
            "snowQuality": 0.3,
            "weather": 0.5,
            "wind": 0.7349725994665188,
            "visibility": 1
          }
        },
        {
          "name": "富良野スキー場 (Furano)",
          "snow": 0.4,
          "prefecture": "北海道",
          "lat": 43.3243,
          "lon": 142.3456,
          "scores": {
            "snowfall": 0.0061620678139311085,
            "snowQuality": 0.7,
            "weather": 0.5,
            "wind": 0.9020311957024462,
            "visibility": 0.9999999999752947
          }
        },
        {
          "name": "サッポロテイネ (Sapporo Teine)",
          "snow": 0.1,
          "prefecture": "北海道",
          "lat": 43.0973,
          "lon": 141.2044,
          "scores": {
            "snowfall": 0.0010054320545488603,
            "snowQuality": 0.3,
            "weather": 0.5,
            "wind": 0.9212896628294647,
            "visibility": 0.9999990992165037
          }
        },
        {
          "name": "ニセコユナイテッド (Niseko United)",
          "snow": 0,
          "prefecture": "北海道",
          "lat": 42.8631,
          "lon": 140.7042,
          "scores": {
            "snowfall": 0,
            "snowQuality": 0.3,
            "weather": 0.5,
            "wind": 0.8084546514385326,
            "visibility": 0.9999999999856604
          }
        },
        {
          "name": "ルスツリゾート (Rusutsu)",
          "snow": 0,
          "prefecture": "北海道",
          "lat": 42.7533,
          "lon": 140.9029,
          "scores": {
            "snowfall": 0,
            "snowQuality": 0.3,
            "weather": 0,
            "wind": 0.8652969480479719,
            "visibility": 0.5773733632268729
          }
        },
        {
          "name": "キロロスノーワールド (Kiroro)",
          "snow": 0,
          "prefecture": "北海道",
          "lat": 43.0722,
          "lon": 140.9781,
          "scores": {
            "snowfall": 0,
            "snowQuality": 0.3,
            "weather": 0,
            "wind": 0.9644288107273639,
            "visibility": 0.008766608519020941
          }
        },
        {
          "name": "札幌国際スキー場 (Sapporo Kokusai)",
          "snow": 0,
          "prefecture": "北海道",
          "lat": 43.0724,
          "lon": 141.0827,
          "scores": {
            "snowfall": 0,
            "snowQuality": 0.7,
            "weather": 0,
            "wind": 0.9664307767185175,
            "visibility": 0.008766608519020941
          }
        },
        {
          "name": "カムイスキーリンクス (Kamui)",
          "snow": 0,
          "prefecture": "北海道",
          "lat": 43.6444,
          "lon": 142.2283,
          "scores": {
            "snowfall": 0,
            "snowQuality": 0.7,
            "weather": 0,
            "wind": 0.8652969480479719,
            "visibility": 1
          }
        },
        {
          "name": "ニセコモイワスキー場 (Niseko Moiwa)",
          "snow": 0,
          "prefecture": "北海道",
          "lat": 42.855,
          "lon": 140.638,
          "scores": {
            "snowfall": 0,
            "snowQuality": 0.7,
            "weather": 0.8,
            "wind": 0.8429045311145473,
            "visibility": 0.9999999999856604
          }
        },
        {
          "name": "大雪山旭岳ロープウェイ (Asahidake)",
          "snow": 0,
          "prefecture": "北海道",
          "lat": 43.6542,
          "lon": 142.7964,
          "scores": {
            "snowfall": 0,
            "snowQuality": 0.3,
            "weather": 0,
            "wind": 0.8721384336809187,
            "visibility": 0.9999999999999976
          }
        },
        {
          "name": "八甲田スキー場 (Hakkoda)",
          "snow": 0,
          "prefecture": "青森県",
          "lat": 40.6868,
          "lon": 140.8654,
          "scores": {
            "snowfall": 0,
            "snowQuality": 0.7,
            "weather": 0,
            "wind": 0.9497887268097336,
            "visibility": 1
          }
        },
        {
          "name": "青森スプリング (Aomori Spring)",
          "snow": 0,
          "prefecture": "青森県",
          "lat": 40.7303,
          "lon": 140.2479,
          "scores": {
            "snowfall": 0,
            "snowQuality": 0.3,
            "weather": 0,
            "wind": 0.9623121094913941,
            "visibility": 1
          }
        },
        {
          "name": "モヤヒルズ (Moya Hills)",
          "snow": 0,
          "prefecture": "青森県",
          "lat": 40.7275,
          "lon": 140.8033,
          "scores": {
            "snowfall": 0,
            "snowQuality": 0.3,
            "weather": 0.3,
            "wind": 0.9577102281579662,
            "visibility": 1
          }
        },
        {
          "name": "大鰐温泉スキー場 (Owani Onsen)",
          "snow": 0,
          "prefecture": "青森県",
          "lat": 40.505,
          "lon": 140.556,
          "scores": {
            "snowfall": 0,
            "snowQuality": 0.3,
            "weather": 0.8,
            "wind": 0.9404756340234984,
            "visibility": 1
          }
        },
        {
          "name": "安比高原スキー場 (Appi Kogen)",
          "snow": 0,
          "prefecture": "岩手県",
          "lat": 40.0019,
          "lon": 140.9749,
          "scores": {
            "snowfall": 0,
            "snowQuality": 0.3,
            "weather": 0,
            "wind": 0.960074666047186,
            "visibility": 1
          }
        },
        {
          "name": "夏油高原スキー場 (Geto Kogen)",
          "snow": 0,
          "prefecture": "岩手県",
          "lat": 39.2311,
          "lon": 140.9419,
          "scores": {
            "snowfall": 0,
            "snowQuality": 0.3,
            "weather": 0.3,
            "wind": 0.9823636596602773,
            "visibility": 1
          }
        },
        {
          "name": "雫石スキー場 (Shizukuishi)",
          "snow": 0,
          "prefecture": "岩手県",
          "lat": 39.718,
          "lon": 140.9575,
          "scores": {
            "snowfall": 0,
            "snowQuality": 0.3,
            "weather": 0.8,
            "wind": 0.9404756340234984,
            "visibility": 1
          }
        },
        {
          "name": "八幡平リゾート (Hachimantai)",
          "snow": 0,
          "prefecture": "岩手県",
          "lat": 39.9075,
          "lon": 141.0264,
          "scores": {
            "snowfall": 0,
            "snowQuality": 0.3,
            "weather": 0.8,
            "wind": 0.9370266439430035,
            "visibility": 1
          }
        },
        {
          "name": "岩手高原スノーパーク (Iwate Kogen)",
          "snow": 0,
          "prefecture": "岩手県",
          "lat": 39.715,
          "lon": 140.98,
          "scores": {
            "snowfall": 0,
            "snowQuality": 0.3,
            "weather": 0.8,
            "wind": 0.9497887268097336,
            "visibility": 1
          }
        },
        {
          "name": "みやぎ蔵王えぼし (Eboshi)",
          "snow": 0,
          "prefecture": "宮城県",
          "lat": 38.1257,
          "lon": 140.5422,
          "scores": {
            "snowfall": 0,
            "snowQuality": 0.3,
            "weather": 0.3,
            "wind": 0.9718047120298574,
            "visibility": 1
          }
        },
        {
          "name": "スプリングバレー仙台泉 (Spring Valley)",
          "snow": 0,
          "prefecture": "宮城県",
          "lat": 38.423,
          "lon": 140.7226,
          "scores": {
            "snowfall": 0,
            "snowQuality": 0.3,
            "weather": 0.3,
            "wind": 0.9823636596602773,
            "visibility": 1
          }
        },
        {
          "name": "オニコウベスキー場 (Onikoube)",
          "snow": 0,
          "prefecture": "宮城県",
          "lat": 38.802,
          "lon": 140.645,
          "scores": {
            "snowfall": 0,
            "snowQuality": 0.2,
            "weather": 0.3,
            "wind": 0.9701133201963639,
            "visibility": 1
          }
        },
        {
          "name": "マウンテンフィールド宮城蔵王すみかわ (Sumikawa)",
          "snow": 0,
          "prefecture": "宮城県",
          "lat": 38.125,
          "lon": 140.482,
          "scores": {
            "snowfall": 0,
            "snowQuality": 0.3,
            "weather": 0.3,
            "wind": 0.9860743596934995,
            "visibility": 1
          }
        },
        {
          "name": "たざわ湖スキー場 (Tazawako)",
          "snow": 0,
          "prefecture": "秋田県",
          "lat": 39.757,
          "lon": 140.758,
          "scores": {
            "snowfall": 0,
            "snowQuality": 0.3,
            "weather": 0.8,
            "wind": 0.9404756340234984,
            "visibility": 1
          }
        },
        {
          "name": "ジュネス栗駒 (Jeunesse)",
          "snow": 0,
          "prefecture": "秋田県",
          "lat": 39.1822,
          "lon": 140.6713,
          "scores": {
            "snowfall": 0,
            "snowQuality": 0.3,
            "weather": 0.8,
            "wind": 0.9664307767185175,
            "visibility": 1
          }
        },
        {
          "name": "阿仁スキー場 (Ani)",
          "snow": 0,
          "prefecture": "秋田県",
          "lat": 39.953,
          "lon": 140.354,
          "scores": {
            "snowfall": 0,
            "snowQuality": 0.3,
            "weather": 0.8,
            "wind": 0.9552122969502131,
            "visibility": 1
          }
        },
        {
          "name": "太平山スキー場オーパス (Opas)",
          "snow": 0,
          "prefecture": "秋田県",
          "lat": 39.78,
          "lon": 140.18,
          "scores": {
            "snowfall": 0,
            "snowQuality": 0.3,
            "weather": 0.8,
            "wind": 0.9255320548339719,
            "visibility": 1
          }
        },
        {
          "name": "蔵王温泉スキー場 (Zao Onsen)",
          "snow": 0,
          "prefecture": "山形県",
          "lat": 38.1636,
          "lon": 140.4042,
          "scores": {
            "snowfall": 0,
            "snowQuality": 0.3,
            "weather": 0.8,
            "wind": 0.907207046882843,
            "visibility": 1
          }
        },
        {
          "name": "天元台高原 (Tengendai)",
          "snow": 0,
          "prefecture": "山形県",
          "lat": 37.7983,
          "lon": 140.1197,
          "scores": {
            "snowfall": 0,
            "snowQuality": 0.3,
            "weather": 0,
            "wind": 0.8581489350995123,
            "visibility": 1
          }
        },
        {
          "name": "ジャングルジャングル (Jungle Jungle)",
          "snow": 0,
          "prefecture": "山形県",
          "lat": 38.455,
          "lon": 140.455,
          "scores": {
            "snowfall": 0,
            "snowQuality": 0.3,
            "weather": 0.8,
            "wind": 0.973403006423134,
            "visibility": 1
          }
        },
        {
          "name": "月山スキー場 (Gassan)",
          "snow": 0,
          "prefecture": "山形県",
          "lat": 38.51892,
          "lon": 140.00662,
          "scores": {
            "snowfall": 0,
            "snowQuality": 0.7,
            "weather": 0.8,
            "wind": 0.8909031788043871,
            "visibility": 1
          }
        },